상가업소번호,상호명,지점명,상권업종대분류코드,상권업종대분류명,상권업종중분류코드,상권업종중분류명,상권업종소분류코드,상권업종소분류명,표준산업분류코드,표준산업분류명,시도코드,시도명,시군구코드,시군구명,행정동코드,행정동명,법정동코드,법정동명,지번코드,대지구분코드,대지구분명,지번본번지,지번부번지,지번주소,도로명코드,도로명,건물본번지,건물부번지,건물관리번호,건물명,도로명주소,구우편번호,신우편번호,동정보,층정보,호정보,경도,위도
MA010120220700020037,땡스플라워데이,,G2,소매,G219,식물 소매,G21901,꽃집,G47851,화초 및 식물 소매업,48,경상남도,48170,진주시,48170750,충무공동,4817013700,충무공동,4.82E+18,1,대지,83,1,경상남도 진주시 충무공동 83-1,4.82E+11,경상남도 진주시 범골로60번길,12,,4.82E+24,,경상남도 진주시 범골로60번길 12,660031,52859,,1,,128.1319195,35.16997472
MA010120220800077851,도래플로라,,G2,소매,G219,식물 소매,G21901,꽃집,G47851,화초 및 식물 소매업,48,경상남도,48250,김해시,48250565,칠산서부동,4825011100,풍유동,4.83E+18,1,대지,870,,경상남도 김해시 풍유동 870,4.83E+11,경상남도 김해시 금관대로1073번길,22,,4.83E+24,,경상남도 김해시 금관대로1073번길 22,621130,51025,,1,,128.846777,35.22399766
MA010120220800078283,고마워요꽃,,G2,소매,G219,식물 소매,G21901,꽃집,G47851,화초 및 식물 소매업,48,경상남도,48129,창원시 진해구,48129620,풍호동,4812914400,풍호동,4.81E+18,1,대지,83,3,경상남도 창원시 진해구 풍호동 83-3,4.81E+11,경상남도 창원시 진해구 충장로,575,3,4.81E+24,우성아파트,경상남도 창원시 진해구 충장로 575-3,645750,51653,,,,128.7044911,35.13799097
MA010120220800095625,꽃피는계절,,G2,소매,G219,식물 소매,G21901,꽃집,G47851,화초 및 식물 소매업,48,경상남도,48121,창원시 의창구,48121540,봉림동,4812112500,사림동,4.81E+18,1,대지,43,6,경상남도 창원시 의창구 사림동 43-6,4.81E+11,경상남도 창원시 의창구 사림로,120,1,4.81E+24,,경상남도 창원시 의창구 사림로 120-1,641824,51151,,,,128.6846726,35.24410782
MA010120220800109996,닥터가든경남점,,G2,소매,G219,식물 소매,G21901,꽃집,G47851,화초 및 식물 소매업,48,경상남도,48125,창원시 마산합포구,48125570,완월동,4812514400,장군동4가,4.81E+18,1,대지,20,5,경상남도 창원시 마산합포구 장군동4가 20-5,4.81E+11,경상남도 창원시 마산합포구 장장군로,19,20,4.81E+24,,경상남도 창원시 마산합포구 장장군로 19-20,631861,51265,,,,128.5642215,35.19747273
MA010120220800149072,정원조경,,G2,소매,G219,식물 소매,G21901,꽃집,G47851,화초 및 식물 소매업,48,경상남도,48121,창원시 의창구,48121540,봉림동,4812112700,봉곡동,4.81E+18,1,대지,49,6,경상남도 창원시 의창구 봉곡동 49-6,4.81E+11,경상남도 창원시 의창구 창이대로165번길,11,,4.81E+24,,경상남도 창원시 의창구 창이대로165번길 11,641821,51180,,,,128.6551532,35.24511905
MA010120220800226952,수정식물원,,G2,소매,G219,식물 소매,G21901,꽃집,G47851,화초 및 식물 소매업,48,경상남도,48125,창원시 마산합포구,48125310,구산면,4812531024,구산면,4.81E+18,1,대지,1000,2,경상남도 창원시 마산합포구 구산면 수정리 1000-2,4.81E+11,경상남도 창원시 마산합포구 구산면 석곡로,389,,4.81E+24,,경상남도 창원시 마산합포구 구산면 석곡로 389,631843,51779,,,,128.5762551,35.11387044
MA010120220800294149,엘스,,G2,소매,G219,식물 소매,G21901,꽃집,G47851,화초 및 식물 소매업,48,경상남도,48121,창원시 의창구,48121530,명곡동,4812110500,도계동,4.81E+18,1,대지,403,1,경상남도 창원시 의창구 도계동 403-1,4.81E+11,경상남도 창원시 의창구 원이대로69번길,6,,4.81E+24,도계빌라,경상남도 창원시 의창구 원이대로69번길 6,641810,51166,,1,,128.6358959,35.25662821
MA010120220800300561,프로방스정원,,G2,소매,G219,식물 소매,G21901,꽃집,G47851,화초 및 식물 소매업,48,경상남도,48250,김해시,48250250,진영읍,4825025027,진영읍,4.83E+18,1,대지,714,36,경상남도 김해시 진영읍 여래리 714-36,4.83E+11,경상남도 김해시 진영읍 진영로214번길,3,1,4.83E+24,,경상남도 김해시 진영읍 진영로214번길 3-1,621806,50868,,,,128.736325,35.30223522
MA010120220800374186,성도꽃집,,G2,소매,G219,식물 소매,G21901,꽃집,G47851,화초 및 식물 소매업,48,경상남도,48170,진주시,48170720,이현동,4817012700,이현동,4.82E+18,1,대지,12,32,경상남도 진주시 이현동 12-32,4.82E+11,경상남도 진주시 서장대로,259,,4.82E+24,,경상남도 진주시 서장대로 259,660982,52668,,,,128.06158,35.19171115
MA010120220800552034,지나원,,G2,소매,G219,식물 소매,G21901,꽃집,G47851,화초 및 식물 소매업,48,경상남도,48220,통영시,48220330,도산면,4822033026,도산면,4.82E+18,1,대지,720,,경상남도 통영시 도산면 저산리 720,4.82E+11,경상남도 통영시 도산면 저산유촌길,73,,4.82E+24,,경상남도 통영시 도산면 저산유촌길 73,650814,53004,,,,128.3042236,34.90583813
MA010120220800664760,소은,,G2,소매,G219,식물 소매,G21901,꽃집,G47851,화초 및 식물 소매업,48,경상남도,48880,거창군,48880250,거창읍,4888025022,거창읍,4.89E+18,1,대지,314,27,경상남도 거창군 거창읍 중앙리 314-27,4.89E+11,경상남도 거창군 거창읍 하동1길,30,,4.89E+24,,경상남도 거창군 거창읍 하동1길 30,670808,50133,,1,,127.9119455,35.68813878
MA010120220800668540,메르헨플라워,,G2,소매,G219,식물 소매,G21901,꽃집,G47851,화초 및 식물 소매업,48,경상남도,48240,사천시,48240320,사남면,4824032025,사남면,4.82E+18,1,대지,271,2,경상남도 사천시 사남면 월성리 271-2,4.82E+11,경상남도 사천시 사남면 사천대로,1589,12,4.82E+24,,경상남도 사천시 사남면 사천대로 1589-12,664942,52533,,,,128.0719888,35.06114569
MA010120220800700964,죽림화원,,G2,소매,G219,식물 소매,G21901,꽃집,G47851,화초 및 식물 소매업,48,경상남도,48250,김해시,48250565,칠산서부동,4825011500,전하동,4.83E+18,1,대지,463,2,경상남도 김해시 전하동 463-2,4.83E+11,경상남도 김해시 전하로198번길,60,,4.83E+24,,경상남도 김해시 전하로198번길 60,621100,50941,,,,128.8702421,35.21759032
MA010120220800844263,톡톡드림,,G2,소매,G219,식물 소매,G21901,꽃집,G47851,화초 및 식물 소매업,48,경상남도,48170,진주시,48170673,상대동,4817011900,상대동,4.82E+18,1,대지,296,92,경상남도 진주시 상대동 296-92,4.82E+11,경상남도 진주시 남강로,901,,4.82E+24,,경상남도 진주시 남강로 901,660806,52794,,3,,128.1013934,35.17886357
MA010120220800825628,살롱조이,,G2,소매,G219,식물 소매,G21901,꽃집,G47851,화초 및 식물 소매업,48,경상남도,48129,창원시 진해구,48129580,석동,4812914000,석동,4.81E+18,1,대지,180,1,경상남도 창원시 진해구 석동 180-1,4.81E+11,경상남도 창원시 진해구 동진로49번길,24,,4.81E+24,,경상남도 창원시 진해구 동진로49번길 24,645280,51660,,1,,128.7033703,35.15317438
MA010120220800924354,써니플랜트,,G2,소매,G219,식물 소매,G21901,꽃집,G47851,화초 및 식물 소매업,48,경상남도,48123,창원시 성산구,48123530,상남동,4812312700,상남동,4.81E+18,1,대지,51,13,경상남도 창원시 성산구 상남동 51-13,4.81E+11,경상남도 창원시 성산구 단정로98번길,9,1,4.81E+24,,경상남도 창원시 성산구 단정로98번길 9-1,642829,51501,,,,128.6891307,35.21540498
MA010120220801077236,화목혜,,G2,소매,G219,식물 소매,G21901,꽃집,G47851,화초 및 식물 소매업,48,경상남도,48129,창원시 진해구,48129530,충무동,4812912100,익선동,4.81E+18,1,대지,2,2,경상남도 창원시 진해구 익선동 2-2,4.81E+11,경상남도 창원시 진해구 편백로14번길,13,,4.81E+24,,경상남도 창원시 진해구 편백로14번길 13,645230,51677,,,,128.6574702,35.14834968
MA010120220801018413,바바라플레르,,G2,소매,G219,식물 소매,G21901,꽃집,G47851,화초 및 식물 소매업,48,경상남도,48123,창원시 성산구,48123515,용지동,4812313600,신월동,4.81E+18,1,대지,30,9,경상남도 창원시 성산구 신월동 30-9,4.81E+11,경상남도 창원시 성산구 신월로85번길,1,,4.81E+24,반,경상남도 창원시 성산구 신월로85번길 1,641837,51441,,,,128.6958612,35.22590017
MA010120220801018899,인생꽃같다,,G2,소매,G219,식물 소매,G21901,꽃집,G47851,화초 및 식물 소매업,48,경상남도,48330,양산시,48330510,중앙동,4833010300,중부동,4.83E+18,1,대지,427,6,경상남도 양산시 중부동 427-6,4.83E+11,경상남도 양산시 서일동2길,36,,4.83E+24,,경상남도 양산시 서일동2길 36,626050,50621,,,,129.0351176,35.34192933
MA010120220801232467,밀양잔디,,G2,소매,G219,식물 소매,G21901,꽃집,G47851,화초 및 식물 소매업,48,경상남도,48270,밀양시,48270550,교동,4827010300,교동,4.83E+18,1,대지,752,1,경상남도 밀양시 교동 752-1,4.83E+11,경상남도 밀양시 밀양대로,2170,,4.83E+24,,경상남도 밀양시 밀양대로 2170,627120,50420,,,,128.7574751,35.50751641
MA010120220801634387,아젤리아가든마켓,,G2,소매,G219,식물 소매,G21901,꽃집,G47851,화초 및 식물 소매업,48,경상남도,48730,함안군,48730380,산인면,4873038023,산인면,4.87E+18,1,대지,821,,경상남도 함안군 산인면 모곡리 821,4.87E+11,경상남도 함안군 산인면 대천길,197,,4.87E+24,,경상남도 함안군 산인면 대천길 197,637842,52032,,,,128.4509492,35.28027515
MA010120220801634771,거창탑플라워,,G2,소매,G219,식물 소매,G21901,꽃집,G47851,화초 및 식물 소매업,48,경상남도,48880,거창군,48880250,거창읍,4888025024,거창읍,4.89E+18,1,대지,916,3,경상남도 거창군 거창읍 대평리 916-3,4.89E+11,경상남도 거창군 거창읍 거함대로,3331,,4.89E+24,,경상남도 거창군 거창읍 거함대로 3331,670804,50145,,,,127.924161,35.67833923
MA010120220801635525,두뫼농장,,G2,소매,G219,식물 소매,G21901,꽃집,G47851,화초 및 식물 소매업,48,경상남도,48121,창원시 의창구,48121250,동읍,4812125025,동읍,4.81E+18,1,대지,838,2,경상남도 창원시 의창구 동읍 덕산리 838-2,4.81E+11,경상남도 창원시 의창구 동읍 의창대로626번길,10,1,4.81E+24,,경상남도 창원시 의창구 동읍 의창대로626번길 10-1,641864,51133,,,,128.6621421,35.26942821
MA010120220801635564,동화플라워,,G2,소매,G219,식물 소매,G21901,꽃집,G47851,화초 및 식물 소매업,48,경상남도,48850,하동군,48850370,진교면,4885037021,진교면,4.89E+18,1,대지,482,23,경상남도 하동군 진교면 진교리 482-23,4.89E+11,경상남도 하동군 진교면 경충로,1117,,4.89E+24,,경상남도 하동군 진교면 경충로 1117,667913,52344,,,,127.9043101,35.03283972
MA010120220801726218,명운빌딩106호,,G2,소매,G219,식물 소매,G21901,꽃집,G47851,화초 및 식물 소매업,48,경상남도,48129,창원시 진해구,48129600,자은동,4812914200,자은동,4.81E+18,1,대지,135,6,경상남도 창원시 진해구 자은동 135-6,4.81E+11,경상남도 창원시 진해구 냉천남로,3,25,4.81E+24,명운빌딩,경상남도 창원시 진해구 냉천남로 3-25,645300,51592,,,,128.7146662,35.15496164
MA010120220801960823,청담플라워,,G2,소매,G219,식물 소매,G21901,꽃집,G47851,화초 및 식물 소매업,48,경상남도,48170,진주시,48170673,상대동,4817011900,상대동,4.82E+18,1,대지,764,14,경상남도 진주시 상대동 764-14,4.82E+11,경상남도 진주시 모덕로,37,,4.82E+24,,경상남도 진주시 모덕로 37,660808,52786,,,,128.1022679,35.18184793
MA010120220801960153,칠원동네꽃집,,G2,소매,G219,식물 소매,G21901,꽃집,G47851,화초 및 식물 소매업,48,경상남도,48730,함안군,48730253,칠원읍,4873025321,칠원읍,4.87E+18,1,대지,719,10,경상남도 함안군 칠원읍 구성리 719-10,4.87E+11,경상남도 함안군 칠원읍 성내길,30,,4.87E+24,,경상남도 함안군 칠원읍 성내길 30,637921,52023,,,,128.5197192,35.30738687
MA010120220802074369,프롬;플레르,,G2,소매,G219,식물 소매,G21901,꽃집,G47851,화초 및 식물 소매업,48,경상남도,48123,창원시 성산구,48123540,사파동,4812313000,사파동,4.81E+18,1,대지,113,13,경상남도 창원시 성산구 사파동 113-13,4.81E+11,경상남도 창원시 성산구 신사로,109,,4.81E+24,,경상남도 창원시 성산구 신사로 109,642827,51447,,1,,128.6959621,35.2217802
MA010120220802396669,스테디띵스,,G2,소매,G219,식물 소매,G21901,꽃집,G47851,화초 및 식물 소매업,48,경상남도,48123,창원시 성산구,48123515,용지동,4812313500,용호동,4.81E+18,1,대지,25,5,경상남도 창원시 성산구 용호동 25-5,4.81E+11,경상남도 창원시 성산구 창이대로460번길,6,,4.81E+24,,경상남도 창원시 성산구 창이대로460번길 6,641840,51429,,,,128.6847607,35.23880744
MA010120220802520077,꽃집in거제,,G2,소매,G219,식물 소매,G21901,꽃집,G47851,화초 및 식물 소매업,48,경상남도,48310,거제시,48310580,고현동,4831010900,고현동,4.83E+18,1,대지,170,1,경상남도 거제시 고현동 170-1,4.83E+11,경상남도 거제시 거제중앙로,1819,,4.83E+24,가운데상가,경상남도 거제시 거제중앙로 1819,656931,53258,,1,,128.626633,34.88098645
MA010120220802693060,꽃피움플라워,,G2,소매,G219,식물 소매,G21901,꽃집,G47851,화초 및 식물 소매업,48,경상남도,48310,거제시,48310540,아주동,4831010500,아주동,4.83E+18,1,대지,1678,7,경상남도 거제시 아주동 1678-7,4.83E+11,경상남도 거제시 아주2로,63,,4.83E+24,,경상남도 거제시 아주2로 63,656220,53308,,1,,128.6845708,34.8678319
MA010120220802692370,꽃해요,,G2,소매,G219,식물 소매,G21901,꽃집,G47851,화초 및 식물 소매업,48,경상남도,48127,창원시 마산회원구,48127520,회원2동,4812710800,회원동,4.81E+18,1,대지,672,25,경상남도 창원시 마산회원구 회원동 672-25,4.81E+11,경상남도 창원시 마산회원구 회원남25길,53,,4.81E+24,,경상남도 창원시 마산회원구 회원남25길 53,630822,51292,,,,128.5643616,35.21737028
MA010120220802783574,주은꽃집천연염색옷,,G2,소매,G219,식물 소매,G21901,꽃집,G47851,화초 및 식물 소매업,48,경상남도,48870,함양군,48870350,지곡면,4887035021,지곡면,4.89E+18,1,대지,144,1,경상남도 함양군 지곡면 개평리 144-1,4.89E+11,경상남도 함양군 지곡면 함양로,2030,,4.89E+24,,경상남도 함양군 지곡면 함양로 2030,676851,50018,,,,127.7674914,35.57721863
MA010120220802905251,꽃피는정원플라워,,G2,소매,G219,식물 소매,G21901,꽃집,G47851,화초 및 식물 소매업,48,경상남도,48170,진주시,48170595,상봉동,4817011400,상봉동,4.82E+18,1,대지,1065,10,경상남도 진주시 상봉동 1065-10,4.82E+11,경상남도 진주시 북장대로82번길,12,2,4.82E+24,,경상남도 진주시 북장대로82번길 12-2,660809,52662,,,,128.0736633,35.19717466
MA010120220802871557,진조경,,G2,소매,G219,식물 소매,G21901,꽃집,G47851,화초 및 식물 소매업,48,경상남도,48870,함양군,48870360,안의면,4887036031,안의면,4.89E+18,1,대지,841,,경상남도 함양군 안의면 신안리 841,4.89E+11,경상남도 함양군 안의면 용추계곡로,87,,4.89E+24,,경상남도 함양군 안의면 용추계곡로 87,676821,50005,,1,,127.8001174,35.6507929
MA010120220802915415,로즈메리,,G2,소매,G219,식물 소매,G21901,꽃집,G47851,화초 및 식물 소매업,48,경상남도,48240,사천시,48240250,사천읍,4824025021,사천읍,4.82E+18,1,대지,638,7,경상남도 사천시 사천읍 선인리 638-7,4.82E+11,경상남도 사천시 사천읍 동문로,83,1,4.82E+24,,경상남도 사천시 사천읍 동문로 83-1,664803,52517,,1,,128.0970902,35.08563532
MA010120220802913730,차보스케,,G2,소매,G219,식물 소매,G21901,꽃집,G47851,화초 및 식물 소매업,48,경상남도,48250,김해시,48250630,장유3동,4825013100,율하동,4.83E+18,1,대지,1400,1,경상남도 김해시 율하동 1400-1,4.83E+11,경상남도 김해시 율하2로,167,,4.83E+24,,경상남도 김해시 율하2로 167,621320,51018,,,,128.818776,35.16904296
MA010120220802925173,블랑플라워,,G2,소매,G219,식물 소매,G21901,꽃집,G47851,화초 및 식물 소매업,48,경상남도,48250,김해시,48250250,진영읍,4825025027,진영읍,4.83E+18,1,대지,755,,경상남도 김해시 진영읍 여래리 755,4.83E+11,경상남도 김해시 진영읍 여래로,54,,4.83E+24,앞쪽에서보면오른쪽,경상남도 김해시 진영읍 여래로 54,621806,50867,,1,,128.7341433,35.30148249
MA010120220802851083,사랑의나눔쌀화환,,G2,소매,G219,식물 소매,G21901,꽃집,G47851,화초 및 식물 소매업,48,경상남도,48840,남해군,48840250,남해읍,4884025021,남해읍,4.88E+18,1,대지,316,3,경상남도 남해군 남해읍 북변리 316-3,4.88E+11,경상남도 남해군 남해읍 남해대로,2835,,4.88E+24,,경상남도 남해군 남해읍 남해대로 2835,668803,52414,,7,,127.8984873,34.84178685
MA010120220802851414,오화당플라워,,G2,소매,G219,식물 소매,G21901,꽃집,G47851,화초 및 식물 소매업,48,경상남도,48330,양산시,48330253,물금읍,4833025323,물금읍,4.83E+18,1,대지,1295,2,경상남도 양산시 물금읍 가촌리 1295-2,4.83E+11,경상남도 양산시 물금읍 증산역로,153,,4.83E+24,정우프라자,경상남도 양산시 물금읍 증산역로 153,626811,50653,,,,129.0067615,35.30977293
MA010120220803006371,봄의정원,,G2,소매,G219,식물 소매,G21901,꽃집,G47851,화초 및 식물 소매업,48,경상남도,48890,합천군,48890250,합천읍,4889025021,합천읍,4.89E+18,1,대지,580,,경상남도 합천군 합천읍 합천리 580,4.89E+11,경상남도 합천군 합천읍 동서로,63,,4.89E+24,,경상남도 합천군 합천읍 동서로 63,678804,50233,,,,128.1592747,35.56716578
MA010120220802989776,플리에플라워,,G2,소매,G219,식물 소매,G21901,꽃집,G47851,화초 및 식물 소매업,48,경상남도,48250,김해시,48250630,장유3동,4825013000,관동동,4.83E+18,1,대지,464,8,경상남도 김해시 관동동 464-8,4.83E+11,경상남도 김해시 대청로26번안길,11,,4.83E+24,,경상남도 김해시 대청로26번안길 11,621300,51012,,1,,128.8020616,35.17652953
MA010120220803001146,금반잔디,,G2,소매,G219,식물 소매,G21901,꽃집,G47851,화초 및 식물 소매업,48,경상남도,48870,함양군,48870320,휴천면,4887032022,휴천면,4.89E+18,1,대지,150,,경상남도 함양군 휴천면 금반리 150,4.89E+11,경상남도 함양군 휴천면 마상길,26,,4.89E+24,,경상남도 함양군 휴천면 마상길 26,676881,50052,,,,127.7385412,35.47470759
MA010120220802945723,피어든,,G2,소매,G219,식물 소매,G21901,꽃집,G47851,화초 및 식물 소매업,48,경상남도,48250,김해시,48250600,불암동,4825012200,불암동,4.83E+18,1,대지,220,108,경상남도 김해시 불암동 220-108,4.83E+11,경상남도 김해시 김해대로2795번길,7,4,4.83E+24,,경상남도 김해시 김해대로2795번길 7-4,621210,50829,,,,128.9292678,35.22225109
MA010120220803051106,플로센트,,G2,소매,G219,식물 소매,G21901,꽃집,G47851,화초 및 식물 소매업,48,경상남도,48121,창원시 의창구,48121530,명곡동,4812112400,명서동,4.81E+18,1,대지,179,10,경상남도 창원시 의창구 명서동 179-10,4.81E+11,경상남도 창원시 의창구 명서로129번길,26,,4.81E+24,,경상남도 창원시 의창구 명서로129번길 26,641815,51175,,1,,128.6491734,35.24493935
MA010120220803046704,뜨라레플라워,,G2,소매,G219,식물 소매,G21901,꽃집,G47851,화초 및 식물 소매업,48,경상남도,48250,김해시,48250630,장유3동,4825013000,관동동,4.83E+18,1,대지,454,16,경상남도 김해시 관동동 454-16,4.83E+11,경상남도 김해시 덕정로,162,,4.83E+24,,경상남도 김해시 덕정로 162,621300,51012,,,,128.8020743,35.17809744
MA010120220803067613,래예플라워디자인,,G2,소매,G219,식물 소매,G21901,꽃집,G47851,화초 및 식물 소매업,48,경상남도,48123,창원시 성산구,48123515,용지동,4812313500,용호동,4.81E+18,1,대지,17,12,경상남도 창원시 성산구 용호동 17-12,4.81E+11,경상남도 창원시 성산구 용지로239번길,4,,4.81E+24,래예플라워,경상남도 창원시 성산구 용지로239번길 4,641840,51429,,,,128.6862838,35.23544271
MA010120220803076797,마음꽃힐링원예,,G2,소매,G219,식물 소매,G21901,꽃집,G47851,화초 및 식물 소매업,48,경상남도,48270,밀양시,48270320,상동면,4827032021,상동면,4.83E+18,1,대지,716,,경상남도 밀양시 상동면 금산리 716,4.83E+11,경상남도 밀양시 상동면 금산4길,23,4,4.83E+24,,경상남도 밀양시 상동면 금산4길 23-4,627841,50409,,,,128.7644986,35.55194941
MA010120220803079034,래예플라워디자인,,G2,소매,G219,식물 소매,G21901,꽃집,G47851,화초 및 식물 소매업,48,경상남도,48123,창원시 성산구,48123520,중앙동,4812313700,대원동,4.81E+18,1,대지,121,,경상남도 창원시 성산구 대원동 121,4.81E+11,경상남도 창원시 성산구 원이대로,320,,4.81E+24,더시티세븐자이,경상남도 창원시 성산구 원이대로 320,641704,51408,,1,,128.6544053,35.23966788
MA010120220803026771,오드가든,,G2,소매,G219,식물 소매,G21901,꽃집,G47851,화초 및 식물 소매업,48,경상남도,48250,김해시,48250630,장유3동,4825013200,장유동,4.83E+18,1,대지,879,9,경상남도 김해시 장유동 879-9,4.83E+11,경상남도 김해시 율하임수길,26,30,4.83E+24,,경상남도 김해시 율하임수길 26-30,621340,51024,,,,128.8310067,35.16826386
MA010120220803138628,어우러져,,G2,소매,G219,식물 소매,G21901,꽃집,G47851,화초 및 식물 소매업,48,경상남도,48250,김해시,48250520,회현동,4825010400,봉황동,4.83E+18,1,대지,213,9,경상남도 김해시 봉황동 213-9,4.83E+11,경상남도 김해시 가락로23번길,26,,4.83E+24,,경상남도 김해시 가락로23번길 26,621040,50926,,1,,128.8795174,35.22836901
MA010120220803137605,아벨리아,,G2,소매,G219,식물 소매,G21901,꽃집,G47851,화초 및 식물 소매업,48,경상남도,48310,거제시,48310590,상문동,4831011000,상동동,4.83E+18,1,대지,915,2,경상남도 거제시 상동동 915-2,4.83E+11,경상남도 거제시 상동5길,91,,4.83E+24,,경상남도 거제시 상동5길 91,656300,53292,,,,128.6315236,34.86281429
MA010120220803144373,다육이랑한국춘란,,G2,소매,G219,식물 소매,G21901,꽃집,G47851,화초 및 식물 소매업,48,경상남도,48170,진주시,48170320,정촌면,4817032025,정촌면,4.82E+18,1,대지,888,16,경상남도 진주시 정촌면 예하리 888-16,4.82E+11,경상남도 진주시 정촌면 진주대로,56,,4.82E+24,,경상남도 진주시 정촌면 진주대로 56,660822,52845,,,,128.0927396,35.11540891
MA010120220803122114,나누미3D플라워&쌀화환,,G2,소매,G219,식물 소매,G21901,꽃집,G47851,화초 및 식물 소매업,48,경상남도,48123,창원시 성산구,48123520,중앙동,4812312500,중앙동,4.81E+18,1,대지,98,2,경상남도 창원시 성산구 중앙동 98-2,4.81E+11,경상남도 창원시 성산구 용지로,78,,4.81E+24,,경상남도 창원시 성산구 용지로 78,642845,51522,,1,,128.6769058,35.2227577
MA010120220803109227,사랑애,,G2,소매,G219,식물 소매,G21901,꽃집,G47851,화초 및 식물 소매업,48,경상남도,48250,김해시,48250250,진영읍,4825025026,진영읍,4.83E+18,1,대지,1600,13,경상남도 김해시 진영읍 진영리 1600-13,4.83E+11,경상남도 김해시 진영읍 진산대로26번길,28,6,4.83E+24,,경상남도 김해시 진영읍 진산대로26번길 28-6,621809,50862,,1,,128.7273821,35.30818508
MA010120220803164424,꼬마께아틀리에,,G2,소매,G219,식물 소매,G21901,꽃집,G47851,화초 및 식물 소매업,48,경상남도,48840,남해군,48840250,남해읍,4884025022,남해읍,4.88E+18,1,대지,138,2,경상남도 남해군 남해읍 서변리 138-2,4.88E+11,경상남도 남해군 남해읍 화전로43번길,4,1,4.88E+24,,경상남도 남해군 남해읍 화전로43번길 4-1,668801,52425,,,,127.8944775,34.83494797
MA010120220803158031,다나플라워,,G2,소매,G219,식물 소매,G21901,꽃집,G47851,화초 및 식물 소매업,48,경상남도,48170,진주시,48170750,충무공동,4817013700,충무공동,4.82E+18,1,대지,322,5,경상남도 진주시 충무공동 322-5,4.82E+11,경상남도 진주시 사들로,24,,4.82E+24,더드림커머셜빌딩,경상남도 진주시 사들로 24,660031,52854,,,,128.1466228,35.17040424
MA010120220803199018,플라워랩메리벨,,G2,소매,G219,식물 소매,G21901,꽃집,G47851,화초 및 식물 소매업,48,경상남도,48127,창원시 마산회원구,48127560,양덕1동,4812710500,양덕동,4.81E+18,1,대지,105,19,경상남도 창원시 마산회원구 양덕동 105-19,4.81E+11,경상남도 창원시 마산회원구 양덕북9길,83,,4.81E+24,,경상남도 창원시 마산회원구 양덕북9길 83,630810,51364,,1,,128.5851662,35.23285316
MA010120220803290249,마음들꽃,,G2,소매,G219,식물 소매,G21901,꽃집,G47851,화초 및 식물 소매업,48,경상남도,48250,김해시,48250565,칠산서부동,4825011400,화목동,4.83E+18,1,대지,391,3,경상남도 김해시 화목동 391-3,4.83E+11,경상남도 김해시 칠산로,333,,4.83E+24,,경상남도 김해시 칠산로 333,621150,51006,,,,128.8500584,35.20212065
MA010120220803350486,베리어스플라워,,G2,소매,G219,식물 소매,G21901,꽃집,G47851,화초 및 식물 소매업,48,경상남도,48125,창원시 마산합포구,48125510,현동,4812515900,현동,4.81E+18,1,대지,382,,경상남도 창원시 마산합포구 현동 382,4.81E+11,경상남도 창원시 마산합포구 현동6길,94,,4.81E+24,현동프라자,경상남도 창원시 마산합포구 현동6길 94,631270,51778,,1,,128.5537241,35.15012129
MA010120220803356929,꽃편지,,G2,소매,G219,식물 소매,G21901,꽃집,G47851,화초 및 식물 소매업,48,경상남도,48330,양산시,48330540,서창동,4833011400,삼호동,4.83E+18,1,대지,791,4,경상남도 양산시 삼호동 791-4,4.83E+11,경상남도 양산시 삼호로,137,,4.83E+24,,경상남도 양산시 삼호로 137,626837,50531,,,,129.1740803,35.41101215
MA010120220803435763,고현농약종묘사,,G2,소매,G219,식물 소매,G21901,꽃집,G47851,화초 및 식물 소매업,48,경상남도,48310,거제시,48310580,고현동,4831010900,고현동,4.83E+18,1,대지,37,2,경상남도 거제시 고현동 37-2,4.83E+11,경상남도 거제시 고현로,108,,4.83E+24,,경상남도 거제시 고현로 108,656930,53255,,1,,128.6244421,34.8869191
MA010120220803421093,송죽농원,,G2,소매,G219,식물 소매,G21901,꽃집,G47851,화초 및 식물 소매업,48,경상남도,48860,산청군,48860380,신안면,4886038021,신안면,4.89E+18,1,대지,329,,경상남도 산청군 신안면 하정리 329,4.89E+11,경상남도 산청군 신안면 원지로153번길,36,,4.89E+24,,경상남도 산청군 신안면 원지로153번길 36,666962,52249,,,,127.9885298,35.29816938
MA010120220803572066,그리니쉬서진주점,,G2,소매,G219,식물 소매,G21901,꽃집,G47851,화초 및 식물 소매업,48,경상남도,48170,진주시,48170710,평거동,4817012600,평거동,4.82E+18,1,대지,921,,경상남도 진주시 평거동 921,4.82E+11,경상남도 진주시 새평거로,136,,4.82E+24,탑마트,경상남도 진주시 새평거로 136,660110,52703,,2,,128.0618953,35.17037452
MA010120220803515165,카틀레야,,G2,소매,G219,식물 소매,G21901,꽃집,G47851,화초 및 식물 소매업,48,경상남도,48123,창원시 성산구,48123515,용지동,4812313600,신월동,4.81E+18,1,대지,90,,경상남도 창원시 성산구 신월동 90,4.81E+11,경상남도 창원시 성산구 신사로,64,,4.81E+24,주공1차,경상남도 창원시 성산구 신사로 64,641782,51446,,,,128.6919022,35.22354032
MA010120220803700219,햇살닮은다육,,G2,소매,G219,식물 소매,G21901,꽃집,G47851,화초 및 식물 소매업,48,경상남도,48127,창원시 마산회원구,48127250,내서읍,4812725023,내서읍,4.81E+18,1,대지,121,,경상남도 창원시 마산회원구 내서읍 호계리 121,4.81E+11,경상남도 창원시 마산회원구 내서읍 호원로,348,,4.81E+24,,경상남도 창원시 마산회원구 내서읍 호원로 348,630856,51246,,,,128.5247665,35.2640641
MA010120220803726951,꽃.나무와흙,,G2,소매,G219,식물 소매,G21901,꽃집,G47851,화초 및 식물 소매업,48,경상남도,48170,진주시,48170420,집현면,4817042024,집현면,4.82E+18,1,대지,842,6,경상남도 진주시 집현면 대암리 842-6,4.82E+11,경상남도 진주시 집현면 진산로,997,,4.82E+24,,경상남도 진주시 집현면 진산로 997,660932,52637,,1,,128.0699966,35.25745879
MA010120220803935246,진주꽃집,,G2,소매,G219,식물 소매,G21901,꽃집,G47851,화초 및 식물 소매업,48,경상남도,48170,진주시,48170730,판문동,4817012600,평거동,4.82E+18,1,대지,695,74,경상남도 진주시 평거동 695-74,4.82E+11,경상남도 진주시 남강로,155,48,4.82E+24,,경상남도 진주시 남강로 155-48,660991,52651,,,,128.0481278,35.163302
MA010120220803935733,플레르메,,G2,소매,G219,식물 소매,G21901,꽃집,G47851,화초 및 식물 소매업,48,경상남도,48129,창원시 진해구,48129610,덕산동,4812914200,자은동,4.81E+18,1,대지,657,52,경상남도 창원시 진해구 자은동 657-52,4.81E+11,경상남도 창원시 진해구 진해대로976번길,6,13,4.81E+24,다솜하우스,경상남도 창원시 진해구 진해대로976번길 6-13,645310,51651,,1,,128.7059235,35.14249497
MA010120220804076480,한국춘란원,,G2,소매,G219,식물 소매,G21901,꽃집,G47851,화초 및 식물 소매업,48,경상남도,48850,하동군,48850420,금성면,4885042024,금성면,4.89E+18,1,대지,823,,경상남도 하동군 금성면 갈사리 823,4.89E+11,경상남도 하동군 금성면 나팔윗길,40,14,4.89E+24,,경상남도 하동군 금성면 나팔윗길 40-14,667932,52355,,,,127.7804066,34.94764744
MA010120220804006778,청록,,G2,소매,G219,식물 소매,G21901,꽃집,G47851,화초 및 식물 소매업,48,경상남도,48121,창원시 의창구,48121520,팔룡동,4812112900,팔용동,4.81E+18,1,대지,39,1,경상남도 창원시 의창구 팔용동 39-1,4.81E+11,경상남도 창원시 의창구 사화로,242,,4.81E+24,창원화훼단지,경상남도 창원시 의창구 사화로 242,641847,51391,,,,128.6298045,35.24487736
MA010120220804340679,돌터미,,G2,소매,G219,식물 소매,G21901,꽃집,G47851,화초 및 식물 소매업,48,경상남도,48121,창원시 의창구,48121320,대산면,4812132027,대산면,4.81E+18,1,대지,109,,경상남도 창원시 의창구 대산면 북부리 109,4.81E+11,경상남도 창원시 의창구 대산면 대산북로899번길,31,13,4.81E+24,,경상남도 창원시 의창구 대산면 대산북로899번길 31-13,641924,51121,,,,128.7263245,35.34893433
MA010120220804416493,꽃들애,,G2,소매,G219,식물 소매,G21901,꽃집,G47851,화초 및 식물 소매업,48,경상남도,48250,김해시,48250565,칠산서부동,4825011100,풍유동,4.83E+18,1,대지,80,10,경상남도 김해시 풍유동 80-10,4.83E+11,경상남도 김해시 전하로,28,,4.83E+24,,경상남도 김해시 전하로 28,621130,50965,,,,128.8513367,35.22070173
MA010120220804426865,홍빈팜,,G2,소매,G219,식물 소매,G21901,꽃집,G47851,화초 및 식물 소매업,48,경상남도,48310,거제시,48310340,거제면,4831034027,거제면,4.83E+18,1,대지,174,4,경상남도 거제시 거제면 서상리 174-4,4.83E+11,경상남도 거제시 거제면 동상3길,115,,4.83E+24,,경상남도 거제시 거제면 동상3길 115,656862,53285,,,,128.6009307,34.85389273
MA010120220804393873,당신의정원팔용동,직영점,G2,소매,G219,식물 소매,G21901,꽃집,G47851,화초 및 식물 소매업,48,경상남도,48121,창원시 의창구,48121520,팔룡동,4812112900,팔용동,4.81E+18,1,대지,187,15,경상남도 창원시 의창구 팔용동 187-15,4.81E+11,경상남도 창원시 의창구 팔용로,491,,4.81E+24,,경상남도 창원시 의창구 팔용로 491,641851,51368,,1,,128.6166944,35.25960803
MA010120220804588545,씨밀레.F,,G2,소매,G219,식물 소매,G21901,꽃집,G47851,화초 및 식물 소매업,48,경상남도,48310,거제시,48310590,상문동,4831011000,상동동,4.83E+18,1,대지,666,13,경상남도 거제시 상동동 666-13,4.83E+11,경상남도 거제시 상동13길,18,,4.83E+24,,경상남도 거제시 상동13길 18,656300,53290,,,,128.6314748,34.87252169
MA010120220804577806,예진식물원,,G2,소매,G219,식물 소매,G21901,꽃집,G47851,화초 및 식물 소매업,48,경상남도,48820,고성군,48820400,회화면,4882040021,회화면,4.88E+18,1,대지,168,,경상남도 고성군 회화면 배둔리 168,4.88E+11,경상남도 고성군 회화면 배둔공단길,20,22,4.88E+24,,경상남도 고성군 회화면 배둔공단길 20-22,638813,52915,,,,128.3739117,35.06678976
MA010120220804616538,어방꽃집,,G2,소매,G219,식물 소매,G21901,꽃집,G47851,화초 및 식물 소매업,48,경상남도,48250,김해시,48250580,활천동,4825011800,어방동,4.83E+18,1,대지,717,5,경상남도 김해시 어방동 717-5,4.83E+11,경상남도 김해시 활천로208번길,59,,4.83E+24,어방종합상가,경상남도 김해시 활천로208번길 59,621916,50840,,,,128.899579,35.23760828
MA010120220804696513,장미화원,,G2,소매,G219,식물 소매,G21901,꽃집,G47851,화초 및 식물 소매업,48,경상남도,48170,진주시,48170695,초장동,4817012200,초전동,4.82E+18,1,대지,684,4,경상남도 진주시 초전동 684-4,4.82E+11,경상남도 진주시 초전남로,17,,4.82E+24,,경상남도 진주시 초전남로 17,660985,52737,,1,,128.1141015,35.19788188
MA010120220804814647,가온플라워,,G2,소매,G219,식물 소매,G21901,꽃집,G47851,화초 및 식물 소매업,48,경상남도,48330,양산시,48330510,중앙동,4833010300,중부동,4.83E+18,1,대지,646,,경상남도 양산시 중부동 646,4.83E+11,경상남도 양산시 삼일로,94,,4.83E+24,,경상남도 양산시 삼일로 94,626050,50621,,4,,129.0376086,35.34389689
MA010120220804844834,릴리의정원,,G2,소매,G219,식물 소매,G21901,꽃집,G47851,화초 및 식물 소매업,48,경상남도,48310,거제시,48310570,장평동,4831010800,장평동,4.83E+18,1,대지,37,5,경상남도 거제시 장평동 37-5,4.83E+11,경상남도 거제시 장평로,62,,4.83E+24,,경상남도 거제시 장평로 62,656925,53265,,,,128.6106696,34.89131136
MA010120220804908806,몽재플레르,,G2,소매,G219,식물 소매,G21901,꽃집,G47851,화초 및 식물 소매업,48,경상남도,48123,창원시 성산구,48123515,용지동,4812313500,용호동,4.81E+18,1,대지,21,1,경상남도 창원시 성산구 용호동 21-1,4.81E+11,경상남도 창원시 성산구 창이대로464번길,11,,4.81E+24,정면에서오른쪽,경상남도 창원시 성산구 창이대로464번길 11,641840,51429,,,,128.6849284,35.23788586
MA010120220804857903,향기나라,,G2,소매,G219,식물 소매,G21901,꽃집,G47851,화초 및 식물 소매업,48,경상남도,48121,창원시 의창구,48121250,동읍,4812125032,동읍,4.81E+18,1,대지,891,1,경상남도 창원시 의창구 동읍 용잠리 891-1,4.81E+11,경상남도 창원시 의창구 동읍 의창대로,811,,4.81E+24,,경상남도 창원시 의창구 동읍 의창대로 811,641864,51132,,,,128.6801208,35.27692124
MA010120220804998761,나무,,G2,소매,G219,식물 소매,G21901,꽃집,G47851,화초 및 식물 소매업,48,경상남도,48250,김해시,48250580,활천동,4825011800,어방동,4.83E+18,1,대지,1085,24,경상남도 김해시 어방동 1085-24,4.83E+11,경상남도 김해시 김해대로2576번길,60,21,4.83E+24,,경상남도 김해시 김해대로2576번길 60-21,621916,50937,,,,128.9108631,35.22370562
MA010120220804977227,투스플로레스,,G2,소매,G219,식물 소매,G21901,꽃집,G47851,화초 및 식물 소매업,48,경상남도,48129,창원시 진해구,48129580,석동,4812914000,석동,4.81E+18,1,대지,643,5,경상남도 창원시 진해구 석동 643-5,4.81E+11,경상남도 창원시 진해구 석동로,59,,4.81E+24,아,경상남도 창원시 진해구 석동로 59,645280,51587,,1,,128.7053241,35.15583254
MA010120220804947597,감나무꽃집,,G2,소매,G219,식물 소매,G21901,꽃집,G47851,화초 및 식물 소매업,48,경상남도,48820,고성군,48820330,하이면,4882033022,하이면,4.88E+18,1,대지,15,24,경상남도 고성군 하이면 덕명리 15-24,4.88E+11,경상남도 고성군 하이면 자란만로,685,,4.88E+24,,경상남도 고성군 하이면 자란만로 685,638931,52963,,,,128.1538154,34.91107279
MA010120220805045115,아란트리,,G2,소매,G219,식물 소매,G21901,꽃집,G47851,화초 및 식물 소매업,48,경상남도,48330,양산시,48330310,동면,4833031026,동면,4.83E+18,1,대지,1472,5,경상남도 양산시 동면 석산리 1472-5,4.83E+11,경상남도 양산시 동면 금오9길,20,,4.83E+24,,경상남도 양산시 동면 금오9길 20,626821,50639,,,,129.0229061,35.31398255
MA010120220805045622,도은들꽃조경,,G2,소매,G219,식물 소매,G21901,꽃집,G47851,화초 및 식물 소매업,48,경상남도,48121,창원시 의창구,48121250,동읍,4812125035,동읍,4.81E+18,1,대지,474,,경상남도 창원시 의창구 동읍 월잠리 474,4.81E+11,경상남도 창원시 의창구 동읍 주남로,49,8,4.81E+24,,경상남도 창원시 의창구 동읍 주남로 49-8,641862,51116,,,,128.672538,35.3031074
MA010120220805047915,꽃담,,G2,소매,G219,식물 소매,G21901,꽃집,G47851,화초 및 식물 소매업,48,경상남도,48170,진주시,48170678,하대동,4817012000,하대동,4.82E+18,1,대지,138,1,경상남도 진주시 하대동 138-1,4.82E+11,경상남도 진주시 도동로,176,1,4.82E+24,,경상남도 진주시 도동로 176-1,660995,52780,,,,128.1225146,35.18607831
MA010120220805098473,고향꽃식물원,,G2,소매,G219,식물 소매,G21901,꽃집,G47851,화초 및 식물 소매업,48,경상남도,48121,창원시 의창구,48121510,의창동,4812110400,소답동,4.81E+18,1,대지,142,17,경상남도 창원시 의창구 소답동 142-17,4.81E+11,경상남도 창원시 의창구 읍성로,109,,4.81E+24,,경상남도 창원시 의창구 읍성로 109,641836,51201,,,,128.6287098,35.26319594
MA010120220805088273,하늘타리꽃집,,G2,소매,G219,식물 소매,G21901,꽃집,G47851,화초 및 식물 소매업,48,경상남도,48170,진주시,48170720,이현동,4817012700,이현동,4.82E+18,1,대지,13,7,경상남도 진주시 이현동 13-7,4.82E+11,경상남도 진주시 서장대로,277,,4.82E+24,,경상남도 진주시 서장대로 277,660982,52666,,1,,128.0634304,35.19216359
MA010120220805098258,영진꽃집,,G2,소매,G219,식물 소매,G21901,꽃집,G47851,화초 및 식물 소매업,48,경상남도,48127,창원시 마산회원구,48127620,봉암동,4812710300,봉암동,4.81E+18,1,대지,451,21,경상남도 창원시 마산회원구 봉암동 451-21,4.81E+11,경상남도 창원시 마산회원구 봉암북4길,48,1,4.81E+24,,경상남도 창원시 마산회원구 봉암북4길 48-1,630804,51347,,,,128.5976443,35.22277552
MA010120220805138410,대륙분재랜드,,G2,소매,G219,식물 소매,G21901,꽃집,G47851,화초 및 식물 소매업,48,경상남도,48240,사천시,48240595,남양동,4824012600,송포동,4.82E+18,1,대지,523,1,경상남도 사천시 송포동 523-1,4.82E+11,경상남도 사천시 삼천포대교로,949,11,4.82E+24,,경상남도 사천시 삼천포대교로 949-11,664839,52546,,,,128.0577964,34.97717642
MA010120220805108388,꽃천지,,G2,소매,G219,식물 소매,G21901,꽃집,G47851,화초 및 식물 소매업,48,경상남도,48123,창원시 성산구,48123560,성주동,4812312800,성주동,4.81E+18,1,대지,153,,경상남도 창원시 성산구 성주동 153,4.81E+11,경상남도 창원시 성산구 삼정자로,79,,4.81E+24,유니온빌리지,경상남도 창원시 성산구 삼정자로 79,642939,51470,,1,,128.7150399,35.19939552
MA010120220805118380,나나플라워,,G2,소매,G219,식물 소매,G21901,꽃집,G47851,화초 및 식물 소매업,48,경상남도,48125,창원시 마산합포구,48125640,합포동,4812511800,산호동,4.81E+18,1,대지,396,3,경상남도 창원시 마산합포구 산호동 396-3,4.81E+11,경상남도 창원시 마산합포구 합포북1길,25,,4.81E+24,,경상남도 창원시 마산합포구 합포북1길 25,631856,51334,,1,,128.5848803,35.21193927
MA010120220805099934,엘더플라워,,G2,소매,G219,식물 소매,G21901,꽃집,G47851,화초 및 식물 소매업,48,경상남도,48123,창원시 성산구,48123515,용지동,4812313600,신월동,4.81E+18,1,대지,35,22,경상남도 창원시 성산구 신월동 35-22,4.81E+11,경상남도 창원시 성산구 신월로,23,,4.81E+24,,경상남도 창원시 성산구 신월로 23,641837,51440,,1,,128.6911637,35.22976003
MA010120220805235098,산신난원,,G2,소매,G219,식물 소매,G21901,꽃집,G47851,화초 및 식물 소매업,48,경상남도,48890,합천군,48890410,대양면,4889041026,대양면,4.89E+18,1,대지,344,2,경상남도 합천군 대양면 도리 344-2,4.89E+11,경상남도 합천군 대양면 도리길,27,,4.89E+24,,경상남도 합천군 대양면 도리길 27,678941,50241,,,,128.1573962,35.49938327
MA010120220805217387,꽃피움,,G2,소매,G219,식물 소매,G21901,꽃집,G47851,화초 및 식물 소매업,48,경상남도,48121,창원시 의창구,48121530,명곡동,4812112400,명서동,4.81E+18,1,대지,142,2,경상남도 창원시 의창구 명서동 142-2,4.81E+11,경상남도 창원시 의창구 명지로,86,,4.81E+24,,경상남도 창원시 의창구 명지로 86,641814,51174,,,,128.6471865,35.24881463
MA010120220805204832,이끌림,,G2,소매,G219,식물 소매,G21901,꽃집,G47851,화초 및 식물 소매업,48,경상남도,48121,창원시 의창구,48121510,의창동,4812110700,소계동,4.81E+18,1,대지,720,11,경상남도 창원시 의창구 소계동 720-11,4.81E+11,경상남도 창원시 의창구 금강로341번길,58,,4.81E+24,,경상남도 창원시 의창구 금강로341번길 58,641834,51183,,,,128.595706,35.25950818
MA010120220805316821,라뮤르,,G2,소매,G219,식물 소매,G21901,꽃집,G47851,화초 및 식물 소매업,48,경상남도,48250,김해시,48250540,내외동,4825010800,내동,4.83E+18,1,대지,161,10,경상남도 김해시 내동 161-10,4.83E+11,경상남도 김해시 금관대로,1299,,4.83E+24,,경상남도 김해시 금관대로 1299,621903,50891,,,,128.8615801,35.24028964
MA010120220805305726,꽃향기,,G2,소매,G219,식물 소매,G21901,꽃집,G47851,화초 및 식물 소매업,48,경상남도,48740,창녕군,48740380,영산면,4874038025,영산면,4.87E+18,1,대지,202,7,경상남도 창녕군 영산면 동리 202-7,4.87E+11,경상남도 창녕군 영산면 로터리길,9,1,4.87E+24,,경상남도 창녕군 영산면 로터리길 9-1,635862,50347,,,,128.5277322,35.45319344
MA010120220805335960,숨은꽃,,G2,소매,G219,식물 소매,G21901,꽃집,G47851,화초 및 식물 소매업,48,경상남도,48240,사천시,48240250,사천읍,4824025024,사천읍,4.82E+18,1,대지,199,4,경상남도 사천시 사천읍 수석리 199-4,4.82E+11,경상남도 사천시 사천읍 수석길,29,,4.82E+24,,경상남도 사천시 사천읍 수석길 29,664805,52516,,,,128.0870516,35.0860412
MA010120220805388726,예다움,,G2,소매,G219,식물 소매,G21901,꽃집,G47851,화초 및 식물 소매업,48,경상남도,48250,김해시,48250550,북부동,4825010700,삼계동,4.83E+18,1,대지,1440,4,경상남도 김해시 삼계동 1440-4,4.83E+11,경상남도 김해시 삼계로205번길,6,1,4.83E+24,,경상남도 김해시 삼계로205번길 6-1,621070,50899,,1,,128.8715899,35.26621548
MA010120220805396408,비앤사,,G2,소매,G219,식물 소매,G21901,꽃집,G47851,화초 및 식물 소매업,48,경상남도,48129,창원시 진해구,48129540,여좌동,4812913700,여좌동,4.81E+18,1,대지,760,86,경상남도 창원시 진해구 여좌동 760-86,4.81E+11,경상남도 창원시 진해구 여좌남로,30,12,4.81E+24,,경상남도 창원시 진해구 여좌남로 30-12,645806,51691,,,,128.6591141,35.15473493
MA010120220805387893,준플라워,,G2,소매,G219,식물 소매,G21901,꽃집,G47851,화초 및 식물 소매업,48,경상남도,48330,양산시,48330310,동면,4833031028,동면,4.83E+18,1,대지,1201,2,경상남도 양산시 동면 가산리 1201-2,4.83E+11,경상남도 양산시 동면 양산대로,59,,4.83E+24,,경상남도 양산시 동면 양산대로 59,626821,50639,,,,129.0161289,35.2805639
MA010120220805362423,꽃이야기,,G2,소매,G219,식물 소매,G21901,꽃집,G47851,화초 및 식물 소매업,48,경상남도,48820,고성군,48820250,고성읍,4882025021,고성읍,4.88E+18,1,대지,195,3,경상남도 고성군 고성읍 성내리 195-3,4.88E+11,경상남도 고성군 고성읍 성내로,123,9,4.88E+24,,경상남도 고성군 고성읍 성내로 123-9,638804,52943,,,,128.3217389,34.97398615
MA010120220805367650,소영플라워,,G2,소매,G219,식물 소매,G21901,꽃집,G47851,화초 및 식물 소매업,48,경상남도,48250,김해시,48250610,장유1동,4825012400,내덕동,4.83E+18,1,대지,232,14,경상남도 김해시 내덕동 232-14,4.83E+11,경상남도 김해시 내덕로148번길,48,1,4.83E+24,,경상남도 김해시 내덕로148번길 48-1,621230,50973,,,,128.8185036,35.20410381
MA010120220805416827,중앙플라워,,G2,소매,G219,식물 소매,G21901,꽃집,G47851,화초 및 식물 소매업,48,경상남도,48330,양산시,48330540,서창동,4833011400,삼호동,4.83E+18,1,대지,217,1,경상남도 양산시 삼호동 217-1,4.83E+11,경상남도 양산시 삼려1길,5,,4.83E+24,,경상남도 양산시 삼려1길 5,626836,50525,,,,129.1777726,35.41896545
MA010120220805341278,플라워센트,,G2,소매,G219,식물 소매,G21901,꽃집,G47851,화초 및 식물 소매업,48,경상남도,48125,창원시 마산합포구,48125640,합포동,4812511800,산호동,4.81E+18,1,대지,430,15,경상남도 창원시 마산합포구 산호동 430-15,4.81E+11,경상남도 창원시 마산합포구 허당로,66,,4.81E+24,,경상남도 창원시 마산합포구 허당로 66,631856,51726,,,,128.5829455,35.21070285
MA010120220805356097,포름포레,,G2,소매,G219,식물 소매,G21901,꽃집,G47851,화초 및 식물 소매업,48,경상남도,48125,창원시 마산합포구,48125650,산호동,4812511800,산호동,4.81E+18,1,대지,27,26,경상남도 창원시 마산합포구 산호동 27-26,4.81E+11,경상남도 창원시 마산합포구 산호북16길,8,,4.81E+24,,경상남도 창원시 마산합포구 산호북16길 8,631852,51328,,2,,128.5822479,35.21945396
MA010120220805458001,플로헤타바이지안,,G2,소매,G219,식물 소매,G21901,꽃집,G47851,화초 및 식물 소매업,48,경상남도,48121,창원시 의창구,48121540,봉림동,4812112500,사림동,4.81E+18,1,대지,118,15,경상남도 창원시 의창구 사림동 118-15,4.81E+11,경상남도 창원시 의창구 사림로71번길,14,11,4.81E+24,,경상남도 창원시 의창구 사림로71번길 14-11,641825,51142,,,,128.6814859,35.24725233
MA010120220805449902,연원조경,,G2,소매,G219,식물 소매,G21901,꽃집,G47851,화초 및 식물 소매업,48,경상남도,48860,산청군,48860340,금서면,4886034028,금서면,4.89E+18,1,대지,219,1,경상남도 산청군 금서면 주상리 219-1,4.89E+11,경상남도 산청군 금서면 경호로,2,,4.89E+24,,경상남도 산청군 금서면 경호로 2,666834,52228,,,,127.7936298,35.46335321
MA010120220805479916,오뮤즈플라워.캔들,,G2,소매,G219,식물 소매,G21901,꽃집,G47851,화초 및 식물 소매업,48,경상남도,48170,진주시,48170515,천전동,4817010200,주약동,4.82E+18,1,대지,161,6,경상남도 진주시 주약동 161-6,4.82E+11,경상남도 진주시 진주대로,854,,4.82E+24,,경상남도 진주시 진주대로 854,660290,52727,,1,,128.0924426,35.17692572
MA010120220805436931,꽃;너에게,,G2,소매,G219,식물 소매,G21901,꽃집,G47851,화초 및 식물 소매업,48,경상남도,48170,진주시,48170750,충무공동,4817013700,충무공동,4.82E+18,1,대지,289,4,경상남도 진주시 충무공동 289-4,4.82E+11,경상남도 진주시 에나로128번길,26,,4.82E+24,토원빌딩,경상남도 진주시 에나로128번길 26,660031,52856,,1,,128.1443598,35.1757523
MA010120220805502569,새론꽃식물원,,G2,소매,G219,식물 소매,G21901,꽃집,G47851,화초 및 식물 소매업,48,경상남도,48730,함안군,48730253,칠원읍,4873025326,칠원읍,4.87E+18,1,대지,427,1,경상남도 함안군 칠원읍 예곡리 427-1,4.87E+11,경상남도 함안군 칠원읍 경남대로,1528,,4.87E+24,,경상남도 함안군 칠원읍 경남대로 1528,637923,52027,,,,128.5311258,35.27616847
MA010120220805653604,헤쎄드플라라,,G2,소매,G219,식물 소매,G21901,꽃집,G47851,화초 및 식물 소매업,48,경상남도,48121,창원시 의창구,48121530,명곡동,4812110500,도계동,4.81E+18,1,대지,324,9,경상남도 창원시 의창구 도계동 324-9,4.81E+11,경상남도 창원시 의창구 하남천서길9번길,12,4,4.81E+24,동방,경상남도 창원시 의창구 하남천서길9번길 12-4,641809,51163,,1,,128.638196,35.26063455
MA010120220805653867,헤이즐가든,,G2,소매,G219,식물 소매,G21901,꽃집,G47851,화초 및 식물 소매업,48,경상남도,48310,거제시,48310540,아주동,4831010500,아주동,4.83E+18,1,대지,245,4,경상남도 거제시 아주동 245-4,4.83E+11,경상남도 거제시 거제대로,3413,1,4.83E+24,,경상남도 거제시 거제대로 3413-1,656902,53304,,,,128.6963044,34.865713
MA010120220805707637,대청꽃조경,,G2,소매,G219,식물 소매,G21901,꽃집,G47851,화초 및 식물 소매업,48,경상남도,48250,김해시,48250620,장유2동,4825012900,대청동,4.83E+18,1,대지,980,1,경상남도 김해시 대청동 980-1,4.83E+11,경상남도 김해시 대청로,102,,4.83E+24,,경상남도 김해시 대청로 102,621280,51002,,,,128.7994207,35.184193
MA010120220805705317,중동농원,,G2,소매,G219,식물 소매,G21901,꽃집,G47851,화초 및 식물 소매업,48,경상남도,48880,거창군,48880250,거창읍,4888025024,거창읍,4.89E+18,1,대지,931,1,경상남도 거창군 거창읍 대평리 931-1,4.89E+11,경상남도 거창군 거창읍 거창대로,4,,4.89E+24,,경상남도 거창군 거창읍 거창대로 4,670804,50145,,,,127.9183721,35.68211468
MA010120220805823822,언제나봄,,G2,소매,G219,식물 소매,G21901,꽃집,G47851,화초 및 식물 소매업,48,경상남도,48125,창원시 마산합포구,48125530,월영동,4812513400,월영동,4.81E+18,1,대지,609,8,경상남도 창원시 마산합포구 월영동 609-8,4.81E+11,경상남도 창원시 마산합포구 월영남11길,1,,4.81E+24,,경상남도 창원시 마산합포구 월영남11길 1,631865,51752,,1,,128.5600607,35.17796946
MA010120220805823832,노아의숲,,G2,소매,G219,식물 소매,G21901,꽃집,G47851,화초 및 식물 소매업,48,경상남도,48125,창원시 마산합포구,48125570,완월동,4812512800,완월동,4.81E+18,1,대지,217,13,경상남도 창원시 마산합포구 완월동 217-13,4.81E+11,경상남도 창원시 마산합포구 고운로,179,,4.81E+24,,경상남도 창원시 마산합포구 고운로 179,631862,51263,,,,128.561997,35.19769972
MA010120220805945948,서리단,,G2,소매,G219,식물 소매,G21901,꽃집,G47851,화초 및 식물 소매업,48,경상남도,48330,양산시,48330253,물금읍,4833025321,물금읍,4.83E+18,1,대지,868,7,경상남도 양산시 물금읍 물금리 868-7,4.83E+11,경상남도 양산시 물금읍 물금1길,20,,4.83E+24,,경상남도 양산시 물금읍 물금1길 20,626812,50657,,,,128.9880217,35.30905526
MA010120220805946062,예향다육,,G2,소매,G219,식물 소매,G21901,꽃집,G47851,화초 및 식물 소매업,48,경상남도,48270,밀양시,48270360,상남면,4827036023,상남면,4.83E+18,1,대지,529,6,경상남도 밀양시 상남면 연금리 529-6,4.83E+11,경상남도 밀양시 상남면 상남로,811,,4.83E+24,,경상남도 밀양시 상남면 상남로 811,627912,50449,,,,128.7642992,35.43097029
MA010120220805981515,블라썸플라워비누꽃,전문점,G2,소매,G219,식물 소매,G21901,꽃집,G47851,화초 및 식물 소매업,48,경상남도,48170,진주시,48170750,충무공동,4817013700,충무공동,4.82E+18,1,대지,198,11,경상남도 진주시 충무공동 198-11,4.82E+11,경상남도 진주시 대밭골로60번길,16,,4.82E+24,주삼빌딩,경상남도 진주시 대밭골로60번길 16,660031,52831,,1,,128.1497733,35.18211825
MA010120220806040528,미즈다육,,G2,소매,G219,식물 소매,G21901,꽃집,G47851,화초 및 식물 소매업,48,경상남도,48310,거제시,48310360,사등면,4831036021,사등면,4.83E+18,1,대지,360,,경상남도 거제시 사등면 사곡리 360,4.83E+11,경상남도 거제시 사등면 두동로1길,79,,4.83E+24,,경상남도 거제시 사등면 두동로1길 79,656882,53278,,,,128.5744675,34.88636004
MA010120220806169675,늘보라,,G2,소매,G219,식물 소매,G21901,꽃집,G47851,화초 및 식물 소매업,48,경상남도,48250,김해시,48250630,장유3동,4825013000,관동동,4.83E+18,1,대지,1058,5,경상남도 김해시 관동동 1058-5,4.83E+11,경상남도 김해시 율하2로,6,,4.83E+24,왼쪽상가,경상남도 김해시 율하2로 6,621300,51013,,1,,128.8060707,35.17665905
MA010120220806288282,꽃밭에서,,G2,소매,G219,식물 소매,G21901,꽃집,G47851,화초 및 식물 소매업,48,경상남도,48330,양산시,48330550,소주동,4833011700,소주동,4.83E+18,1,대지,409,12,경상남도 양산시 소주동 409-12,4.83E+11,경상남도 양산시 소주회야로,45,24,4.83E+24,,경상남도 양산시 소주회야로 45-24,626280,50514,,2,,129.157646,35.4068555
MA010120220806374040,샤르네꽃작업실,,G2,소매,G219,식물 소매,G21901,꽃집,G47851,화초 및 식물 소매업,48,경상남도,48250,김해시,48250630,장유3동,4825013100,율하동,4.83E+18,1,대지,1373,1,경상남도 김해시 율하동 1373-1,4.83E+11,경상남도 김해시 율하2로,240,,4.83E+24,,경상남도 김해시 율하2로 240,621320,51016,,1,,128.821029,35.17508322
MA010120220806449563,내일의꽃,,G2,소매,G219,식물 소매,G21901,꽃집,G47851,화초 및 식물 소매업,48,경상남도,48250,김해시,48250530,부원동,4825010300,부원동,4.83E+18,1,대지,621,19,경상남도 김해시 부원동 621-19,4.83E+11,경상남도 김해시 김해대로2371번길,6,,4.83E+24,,경상남도 김해시 김해대로2371번길 6,621907,50924,,,,128.8863137,35.22732603
MA010120220806504427,봉성,,G2,소매,G219,식물 소매,G21901,꽃집,G47851,화초 및 식물 소매업,48,경상남도,48880,거창군,48880250,거창읍,4888025021,거창읍,4.89E+18,1,대지,629,3,경상남도 거창군 거창읍 상림리 629-3,4.89E+11,경상남도 거창군 거창읍 거열로,37,,4.89E+24,,경상남도 거창군 거창읍 거열로 37,670807,50130,,,,127.8991159,35.68582897
MA010120220806444019,진동다육,,G2,소매,G219,식물 소매,G21901,꽃집,G47851,화초 및 식물 소매업,48,경상남도,48125,창원시 마산합포구,48125320,진동면,4812532025,진동면,4.81E+18,1,대지,525,8,경상남도 창원시 마산합포구 진동면 요장리 525-8,4.81E+11,경상남도 창원시 마산합포구 진동면 요장1길,94,,4.81E+24,,경상남도 창원시 마산합포구 진동면 요장1길 94,631814,51791,,,,128.4942574,35.11089855
MA010120220806544698,하트플라워,,G2,소매,G219,식물 소매,G21901,꽃집,G47851,화초 및 식물 소매업,48,경상남도,48127,창원시 마산회원구,48127520,회원2동,4812710800,회원동,4.81E+18,1,대지,644,5,경상남도 창원시 마산회원구 회원동 644-5,4.81E+11,경상남도 창원시 마산회원구 무학로,573,1,4.81E+24,,경상남도 창원시 마산회원구 무학로 573-1,630823,51286,,1,,128.5608582,35.2190828
MA010120220806510922,키작은아이,,G2,소매,G219,식물 소매,G21901,꽃집,G47851,화초 및 식물 소매업,48,경상남도,48129,창원시 진해구,48129630,웅천동,4812915000,남문동,4.81E+18,1,대지,1251,1,경상남도 창원시 진해구 남문동 1251-1,4.81E+11,경상남도 창원시 진해구 웅천동로106번길,31,,4.81E+24,남문주상가,경상남도 창원시 진해구 웅천동로106번길 31,645370,51617,,1,,128.7528519,35.10524447
MA010120220806603018,봉봉플라워,,G2,소매,G219,식물 소매,G21901,꽃집,G47851,화초 및 식물 소매업,48,경상남도,48250,김해시,48250550,북부동,4825010600,구산동,4.83E+18,1,대지,283,5,경상남도 김해시 구산동 283-5,4.83E+11,경상남도 김해시 구산로10번길,25,,4.83E+24,,경상남도 김해시 구산로10번길 25,621900,50910,,,,128.8711902,35.24691831
MA010120220806725970,홍여사플라워,,G2,소매,G219,식물 소매,G21901,꽃집,G47851,화초 및 식물 소매업,48,경상남도,48250,김해시,48250540,내외동,4825010800,내동,4.83E+18,1,대지,1108,21,경상남도 김해시 내동 1108-21,4.83E+11,경상남도 김해시 내외로11번길,18,,4.83E+24,,경상남도 김해시 내외로11번길 18,621903,50951,,,,128.8605158,35.23745826
MA010120220806720482,플레르주주,,G2,소매,G219,식물 소매,G21901,꽃집,G47851,화초 및 식물 소매업,48,경상남도,48123,창원시 성산구,48123550,가음정동,4812313100,가음동,4.81E+18,1,대지,6,11,경상남도 창원시 성산구 가음동 6-11,4.81E+11,경상남도 창원시 성산구 가음정로,37,1,4.81E+24,,경상남도 창원시 성산구 가음정로 37-1,642800,51510,,1,,128.6884386,35.20955671
MA010120220806695828,제이문플라워,,G2,소매,G219,식물 소매,G21901,꽃집,G47851,화초 및 식물 소매업,48,경상남도,48129,창원시 진해구,48129610,덕산동,4812914200,자은동,4.81E+18,1,대지,672,58,경상남도 창원시 진해구 자은동 672-58,4.81E+11,경상남도 창원시 진해구 진해대로982번길,3,,4.81E+24,,경상남도 창원시 진해구 진해대로982번길 3,645310,51651,,1,,128.7062266,35.14176972
MA010120220806696149,디어올플라워,,G2,소매,G219,식물 소매,G21901,꽃집,G47851,화초 및 식물 소매업,48,경상남도,48310,거제시,48310580,고현동,4831010900,고현동,4.83E+18,1,대지,1006,2,경상남도 거제시 고현동 1006-2,4.83E+11,경상남도 거제시 중곡1로,14,,4.83E+24,,경상남도 거제시 중곡1로 14,656936,53249,,,,128.625231,34.8931003
MA010120220806696190,오브디,,G2,소매,G219,식물 소매,G21901,꽃집,G47851,화초 및 식물 소매업,48,경상남도,48240,사천시,48240250,사천읍,4824025024,사천읍,4.82E+18,1,대지,347,1,경상남도 사천시 사천읍 수석리 347-1,4.82E+11,경상남도 사천시 사천읍 사천대로,1860,1,4.82E+24,,경상남도 사천시 사천읍 사천대로 1860-1,664806,52519,,,,128.0839457,35.08251782
MA010120220806672822,고성식물원,,G2,소매,G219,식물 소매,G21901,꽃집,G47851,화초 및 식물 소매업,48,경상남도,48820,고성군,48820400,회화면,4882040021,회화면,4.88E+18,1,대지,138,,경상남도 고성군 회화면 배둔리 138,4.88E+11,경상남도 고성군 회화면 남해안대로,3797,,4.88E+24,,경상남도 고성군 회화면 남해안대로 3797,638813,52914,,,,128.3729545,35.06592636
MA010120220806784043,꽃바다,,G2,소매,G219,식물 소매,G21901,꽃집,G47851,화초 및 식물 소매업,48,경상남도,48250,김해시,48250630,장유3동,4825013000,관동동,4.83E+18,1,대지,1169,,경상남도 김해시 관동동 1169,4.83E+11,경상남도 김해시 관동로27번길,41,,4.83E+24,힐스테이트김해아파트,경상남도 김해시 관동로27번길 41,621300,51005,,1,,128.8105093,35.17783643
MA010120220806756326,꽃그리고,,G2,소매,G219,식물 소매,G21901,꽃집,G47851,화초 및 식물 소매업,48,경상남도,48240,사천시,48240250,사천읍,4824025023,사천읍,4.82E+18,1,대지,251,,경상남도 사천시 사천읍 평화리 251,4.82E+11,경상남도 사천시 사천읍 읍내로,44,1,4.82E+24,,경상남도 사천시 사천읍 읍내로 44-1,664808,52518,,,,128.0903462,35.08312741
MA010120220806886380,숲을지나,,G2,소매,G219,식물 소매,G21901,꽃집,G47851,화초 및 식물 소매업,48,경상남도,48121,창원시 의창구,48121530,명곡동,4812112400,명서동,4.81E+18,1,대지,20,20,경상남도 창원시 의창구 명서동 20-20,4.81E+11,경상남도 창원시 의창구 도계로,171,,4.81E+24,,경상남도 창원시 의창구 도계로 171,641812,51169,,,,128.6405248,35.25133844
MA010120220806886659,보니플라워,,G2,소매,G219,식물 소매,G21901,꽃집,G47851,화초 및 식물 소매업,48,경상남도,48127,창원시 마산회원구,48127250,내서읍,4812725028,내서읍,4.81E+18,1,대지,36,5,경상남도 창원시 마산회원구 내서읍 삼계리 36-5,4.81E+11,경상남도 창원시 마산회원구 내서읍 삼계로,33,5,4.81E+24,,경상남도 창원시 마산회원구 내서읍 삼계로 33-5,630852,51223,,,,128.5011713,35.23113039
MA010120220806872271,소야드,,G2,소매,G219,식물 소매,G21901,꽃집,G47851,화초 및 식물 소매업,48,경상남도,48127,창원시 마산회원구,48127570,양덕2동,4812710500,양덕동,4.81E+18,1,대지,61,1,경상남도 창원시 마산회원구 양덕동 61-1,4.81E+11,경상남도 창원시 마산회원구 양덕로,149,1,4.81E+24,,경상남도 창원시 마산회원구 양덕로 149-1,630811,51366,,1,,128.5832425,35.23164366
MA010120220806853593,세이;예스,,G2,소매,G219,식물 소매,G21901,꽃집,G47851,화초 및 식물 소매업,48,경상남도,48170,진주시,48170710,평거동,4817012600,평거동,4.82E+18,1,대지,777,11,경상남도 진주시 평거동 777-11,4.82E+11,경상남도 진주시 신평공원길,27,,4.82E+24,,경상남도 진주시 신평공원길 27,660992,52702,,1,,128.0664203,35.17141633
MA010120220806856648,마미에,,G2,소매,G219,식물 소매,G21901,꽃집,G47851,화초 및 식물 소매업,48,경상남도,48250,김해시,48250520,회현동,4825010400,봉황동,4.83E+18,1,대지,204,1,경상남도 김해시 봉황동 204-1,4.83E+11,경상남도 김해시 가락로23번길,54,,4.83E+24,,경상남도 김해시 가락로23번길 54,621040,50927,,,,128.8765995,35.22804481
MA010120220806906481,대목난원,,G2,소매,G219,식물 소매,G21901,꽃집,G47851,화초 및 식물 소매업,48,경상남도,48890,합천군,48890410,대양면,4889041023,대양면,4.89E+18,1,대지,136,,경상남도 합천군 대양면 대목리 136,4.89E+11,경상남도 합천군 대양면 대목길,18,,4.89E+24,,경상남도 합천군 대양면 대목길 18,678941,50239,,,,128.168657,35.52886259
MA010120220806907310,하바플라리움꽃과케이크,,G2,소매,G219,식물 소매,G21901,꽃집,G47851,화초 및 식물 소매업,48,경상남도,48170,진주시,48170695,초장동,4817012200,초전동,4.82E+18,1,대지,1714,9,경상남도 진주시 초전동 1714-9,4.82E+11,경상남도 진주시 초전북로61번길,25,4,4.82E+24,,경상남도 진주시 초전북로61번길 25-4,660360,52731,,1,,128.1129379,35.21078111
MA010120220806843750,더봄,,G2,소매,G219,식물 소매,G21901,꽃집,G47851,화초 및 식물 소매업,48,경상남도,48220,통영시,48220700,무전동,4822011100,무전동,4.82E+18,1,대지,857,,경상남도 통영시 무전동 857,4.82E+11,경상남도 통영시 무전7길,186,,4.82E+24,금자빌딩,경상남도 통영시 무전7길 186,650800,53034,,,,128.4208821,34.86503494
MA010120220806846627,플란테,,G2,소매,G219,식물 소매,G21901,꽃집,G47851,화초 및 식물 소매업,48,경상남도,48270,밀양시,48270310,부북면,4827031033,부북면,4.83E+18,1,대지,229,5,경상남도 밀양시 부북면 위양리 229-5,4.83E+11,경상남도 밀양시 부북면 위양로,310,,4.83E+24,,경상남도 밀양시 부북면 위양로 310,627853,50401,,,,128.7133489,35.55065965
MA010120220806946661,콩이짱짱다육,,G2,소매,G219,식물 소매,G21901,꽃집,G47851,화초 및 식물 소매업,48,경상남도,48250,김해시,48250520,회현동,4825010200,서상동,4.83E+18,1,대지,163,30,경상남도 김해시 서상동 163-30,4.83E+11,경상남도 김해시 분성로317번길,23,14,4.83E+24,,경상남도 김해시 분성로317번길 23-14,621030,50916,,,,128.8799595,35.2356257
MA010120220807042898,플로레스,,G2,소매,G219,식물 소매,G21901,꽃집,G47851,화초 및 식물 소매업,48,경상남도,48250,김해시,48250590,삼안동,4825011900,삼방동,4.83E+18,1,대지,239,9,경상남도 김해시 삼방동 239-9,4.83E+11,경상남도 김해시 삼안로168번길,7,2,4.83E+24,플로레스,경상남도 김해시 삼안로168번길 7-2,621909,50823,,1,,128.913878,35.24358305
MA010120220807016935,비밀의화원,,G2,소매,G219,식물 소매,G21901,꽃집,G47851,화초 및 식물 소매업,48,경상남도,48170,진주시,48170555,성북동,4817011300,봉곡동,4.82E+18,1,대지,443,11,경상남도 진주시 봉곡동 443-11,4.82E+11,경상남도 진주시 진주대로,1172,3,4.82E+24,,경상남도 진주시 진주대로 1172-3,660040,52663,,,,128.0747836,35.19553337
MA010120220807059756,플라워썬,,G2,소매,G219,식물 소매,G21901,꽃집,G47851,화초 및 식물 소매업,48,경상남도,48121,창원시 의창구,48121540,봉림동,4812112700,봉곡동,4.81E+18,1,대지,164,18,경상남도 창원시 의창구 봉곡동 164-18,4.81E+11,경상남도 창원시 의창구 사림로,15,,4.81E+24,,경상남도 창원시 의창구 사림로 15,641823,51147,,,,128.6749684,35.24604498
MA010120220807067121,꽃사랑화원,,G2,소매,G219,식물 소매,G21901,꽃집,G47851,화초 및 식물 소매업,48,경상남도,48330,양산시,48330253,물금읍,4833025324,물금읍,4.83E+18,1,대지,2711,23,경상남도 양산시 물금읍 범어리 2711-23,4.83E+11,경상남도 양산시 물금읍 삽량로,30,,4.83E+24,디온플레이스,경상남도 양산시 물금읍 삽량로 30,626815,50611,,,,129.012836,35.32864114
MA010120220807057168,하나로꽃집,,G2,소매,G219,식물 소매,G21901,꽃집,G47851,화초 및 식물 소매업,48,경상남도,48890,합천군,48890250,합천읍,4889025021,합천읍,4.89E+18,1,대지,435,1,경상남도 합천군 합천읍 합천리 435-1,4.89E+11,경상남도 합천군 합천읍 옥산로,87,,4.89E+24,,경상남도 합천군 합천읍 옥산로 87,678801,50231,,,,128.1646621,35.5682494
MA010120220807067425,수니플레르,,G2,소매,G219,식물 소매,G21901,꽃집,G47851,화초 및 식물 소매업,48,경상남도,48129,창원시 진해구,48129580,석동,4812914000,석동,4.81E+18,1,대지,641,4,경상남도 창원시 진해구 석동 641-4,4.81E+11,경상남도 창원시 진해구 석동로75번길,23,,4.81E+24,신우빌,경상남도 창원시 진해구 석동로75번길 23,645280,51587,,1,,128.7044317,35.15776471
MA010120220807057328,가을나무,,G2,소매,G219,식물 소매,G21901,꽃집,G47851,화초 및 식물 소매업,48,경상남도,48310,거제시,48310600,수양동,4831011300,양정동,4.83E+18,1,대지,342,2,경상남도 거제시 양정동 342-2,4.83E+11,경상남도 거제시 양정2길,61,,4.83E+24,,경상남도 거제시 양정2길 61,656806,53244,,,,128.6469003,34.87117807
MA010120220807117568,블루플라워,,G2,소매,G219,식물 소매,G21901,꽃집,G47851,화초 및 식물 소매업,48,경상남도,48127,창원시 마산회원구,48127620,봉암동,4812710300,봉암동,4.81E+18,1,대지,462,30,경상남도 창원시 마산회원구 봉암동 462-30,4.81E+11,경상남도 창원시 마산회원구 봉양로,75,5,4.81E+24,,경상남도 창원시 마산회원구 봉양로 75-5,630804,51347,,,,128.595254,35.22129298
MA010120220807100842,박사플로리스트꽃꽂이,,G2,소매,G219,식물 소매,G21901,꽃집,G47851,화초 및 식물 소매업,48,경상남도,48170,진주시,48170715,신안동,4817012500,신안동,4.82E+18,1,대지,455,7,경상남도 진주시 신안동 455-7,4.82E+11,경상남도 진주시 평거로115번길,18,,4.82E+24,,경상남도 진주시 평거로115번길 18,660908,52696,,,,128.0692568,35.18099021
MA010120220807097391,댓플라워샵,,G2,소매,G219,식물 소매,G21901,꽃집,G47851,화초 및 식물 소매업,48,경상남도,48250,김해시,48250530,부원동,4825010300,부원동,4.83E+18,1,대지,620,39,경상남도 김해시 부원동 620-39,4.83E+11,경상남도 김해시 김해대로2371번길,12,8,4.83E+24,왼쪽,경상남도 김해시 김해대로2371번길 12-8,621907,50924,,1,,128.8864246,35.22784699
MA010120220807107134,가기화,,G2,소매,G219,식물 소매,G21901,꽃집,G47851,화초 및 식물 소매업,48,경상남도,48123,창원시 성산구,48123540,사파동,4812310500,대방동,4.81E+18,1,대지,350,15,경상남도 창원시 성산구 대방동 350-15,4.81E+11,경상남도 창원시 성산구 대암로,151,,4.81E+24,,경상남도 창원시 성산구 대암로 151,642804,51469,,,,128.7102488,35.21228762
MA010120220807101671,엘제플라워,,G2,소매,G219,식물 소매,G21901,꽃집,G47851,화초 및 식물 소매업,48,경상남도,48330,양산시,48330253,물금읍,4833025323,물금읍,4.83E+18,1,대지,1268,2,경상남도 양산시 물금읍 가촌리 1268-2,4.83E+11,경상남도 양산시 물금읍 물금로,179,,4.83E+24,,경상남도 양산시 물금읍 물금로 179,626811,50613,,1,,128.9995588,35.31907504
MA010120220807148081,퀸플로리스,,G2,소매,G219,식물 소매,G21901,꽃집,G47851,화초 및 식물 소매업,48,경상남도,48123,창원시 성산구,48123510,반송동,4812312400,반지동,4.81E+18,1,대지,82,19,경상남도 창원시 성산구 반지동 82-19,4.81E+11,경상남도 창원시 성산구 반송로50번길,10,,4.81E+24,,경상남도 창원시 성산구 반송로50번길 10,642820,51420,,,,128.661865,35.24025059
MA010120220807137392,플라워샵은디,,G2,소매,G219,식물 소매,G21901,꽃집,G47851,화초 및 식물 소매업,48,경상남도,48170,진주시,48170555,성북동,4817010500,본성동,4.82E+18,1,대지,12,16,경상남도 진주시 본성동 12-16,4.82E+11,경상남도 진주시 남강로633번길,10,1,4.82E+24,상가좌,경상남도 진주시 남강로633번길 10-1,660160,52690,,1,,128.0808144,35.19160409
MA010120220807137555,미래꽃화분,,G2,소매,G219,식물 소매,G21901,꽃집,G47851,화초 및 식물 소매업,48,경상남도,48125,창원시 마산합포구,48125330,진북면,4812533021,진북면,4.81E+18,1,대지,54,3,경상남도 창원시 마산합포구 진북면 지산리 54-3,4.81E+11,경상남도 창원시 마산합포구 진북면 삼진의거대로,546,,4.81E+24,,경상남도 창원시 마산합포구 진북면 삼진의거대로 546,631823,51794,,,,128.4779577,35.11446012
MA010120220807139244,꽃으로물들다,,G2,소매,G219,식물 소매,G21901,꽃집,G47851,화초 및 식물 소매업,48,경상남도,48170,진주시,48170565,중앙동,4817010900,대안동,4.82E+18,1,대지,9,7,경상남도 진주시 대안동 9-7,4.82E+11,경상남도 진주시 진주대로,1060,1,4.82E+24,,경상남도 진주시 진주대로 1060-1,660140,52754,,,,128.0841539,35.19421505
MA010120220807141842,풀리피,,G2,소매,G219,식물 소매,G21901,꽃집,G47851,화초 및 식물 소매업,48,경상남도,48125,창원시 마산합포구,48125530,월영동,4812510500,대내동,4.81E+18,1,대지,3,31,경상남도 창원시 마산합포구 대내동 3-31,4.81E+11,경상남도 창원시 마산합포구 월영북로,22,,4.81E+24,,경상남도 창원시 마산합포구 월영북로 22,631863,51765,,,,128.5563679,35.18233393
MA010120220807080822,인느,,G2,소매,G219,식물 소매,G21901,꽃집,G47851,화초 및 식물 소매업,48,경상남도,48170,진주시,48170565,중앙동,4817010900,대안동,4.82E+18,1,대지,13,4,경상남도 진주시 대안동 13-4,4.82E+11,경상남도 진주시 진주대로1063번길,3,,4.82E+24,일부,경상남도 진주시 진주대로1063번길 3,660140,52684,,1,,128.083627,35.19422878
MA010120220807077336,디어풀,,G2,소매,G219,식물 소매,G21901,꽃집,G47851,화초 및 식물 소매업,48,경상남도,48125,창원시 마산합포구,48125610,교방동,4812510200,교방동,4.81E+18,1,대지,361,6,경상남도 창원시 마산합포구 교방동 361-6,4.81E+11,경상남도 창원시 마산합포구 교방북2길,3,,4.81E+24,,경상남도 창원시 마산합포구 교방북2길 3,631851,51270,,1,,128.5641839,35.21497528
MA010120220807177365,향기플라워,,G2,소매,G219,식물 소매,G21901,꽃집,G47851,화초 및 식물 소매업,48,경상남도,48240,사천시,48240250,사천읍,4824025024,사천읍,4.82E+18,1,대지,347,1,경상남도 사천시 사천읍 수석리 347-1,4.82E+11,경상남도 사천시 사천읍 사천대로,1860,,4.82E+24,,경상남도 사천시 사천읍 사천대로 1860,664806,52519,,,,128.0838894,35.08240115
MA010120220807222328,들꽃조경,,G2,소매,G219,식물 소매,G21901,꽃집,G47851,화초 및 식물 소매업,48,경상남도,48850,하동군,48850370,진교면,4885037025,진교면,4.89E+18,1,대지,573,,경상남도 하동군 진교면 양포리 573,4.89E+11,경상남도 하동군 진교면 대전방길,28,,4.89E+24,,경상남도 하동군 진교면 대전방길 28,667911,52349,,,,127.9085191,35.00420871
MA010120220807170051,알로하플라워,,G2,소매,G219,식물 소매,G21901,꽃집,G47851,화초 및 식물 소매업,48,경상남도,48170,진주시,48170740,가호동,4817013100,가좌동,4.82E+18,1,대지,1431,2,경상남도 진주시 가좌동 1431-2,4.82E+11,경상남도 진주시 가좌길84번길,4,,4.82E+24,,경상남도 진주시 가좌길84번길 4,660300,52822,,1,,128.1064535,35.16099872
MA010120220807346590,프롬니나,,G2,소매,G219,식물 소매,G21901,꽃집,G47851,화초 및 식물 소매업,48,경상남도,48125,창원시 마산합포구,48125630,오동동,4812512000,서성동,4.81E+18,1,대지,84,7,경상남도 창원시 마산합포구 서성동 84-7,4.81E+11,경상남도 창원시 마산합포구 315대로,258,,4.81E+24,,경상남도 창원시 마산합포구 315대로 258,631860,51732,,1,,128.5676884,35.20133927
MA010120220807384524,가든포유,김해점,G2,소매,G219,식물 소매,G21901,꽃집,G47851,화초 및 식물 소매업,48,경상남도,48250,김해시,48250540,내외동,4825010800,내동,4.83E+18,1,대지,1097,2,경상남도 김해시 내동 1097-2,4.83E+11,경상남도 김해시 경원로,2,,4.83E+24,,경상남도 김해시 경원로 2,621903,50951,,,,128.8611284,35.23926924
MA010120220807387075,봄,,G2,소매,G219,식물 소매,G21901,꽃집,G47851,화초 및 식물 소매업,48,경상남도,48170,진주시,48170440,명석면,4817044026,명석면,4.82E+18,1,대지,446,,경상남도 진주시 명석면 신기리 446,4.82E+11,경상남도 진주시 명석면 광제산로938번길,15,,4.82E+24,,경상남도 진주시 명석면 광제산로938번길 15,660952,52641,,,,128.0313905,35.29178181
MA010120220807380191,꽃나무핸즈,,G2,소매,G219,식물 소매,G21901,꽃집,G47851,화초 및 식물 소매업,48,경상남도,48121,창원시 의창구,48121540,봉림동,4812112700,봉곡동,4.81E+18,1,대지,37,5,경상남도 창원시 의창구 봉곡동 37-5,4.81E+11,경상남도 창원시 의창구 원이대로285번길,7,,4.81E+24,,경상남도 창원시 의창구 원이대로285번길 7,641821,51176,,,,128.6513976,35.24302546
MA010120220807368515,화분,,G2,소매,G219,식물 소매,G21901,꽃집,G47851,화초 및 식물 소매업,48,경상남도,48330,양산시,48330310,동면,4833031028,동면,4.83E+18,1,대지,1201,2,경상남도 양산시 동면 가산리 1201-2,4.83E+11,경상남도 양산시 동면 양산대로,59,,4.83E+24,,경상남도 양산시 동면 양산대로 59,626821,50639,,,,129.0161289,35.2805639
MA010120220807403112,꽃밭에서,,G2,소매,G219,식물 소매,G21901,꽃집,G47851,화초 및 식물 소매업,48,경상남도,48310,거제시,48310580,고현동,4831010900,고현동,4.83E+18,1,대지,1039,,경상남도 거제시 고현동 1039,4.83E+11,경상남도 거제시 중곡로,40,,4.83E+24,거제덕산베스트타운1차,경상남도 거제시 중곡로 40,656763,53246,,,,128.6304017,34.8962576
MA010120220807485791,히얼이즈플라워,,G2,소매,G219,식물 소매,G21901,꽃집,G47851,화초 및 식물 소매업,48,경상남도,48121,창원시 의창구,48121530,명곡동,4812110500,도계동,4.81E+18,1,대지,910,2,경상남도 창원시 의창구 도계동 910-2,4.81E+11,경상남도 창원시 의창구 우곡로,2,11,4.81E+24,강남프리텔,경상남도 창원시 의창구 우곡로 2-11,641811,51381,,1,,128.6377981,35.25233068
MA010120220807736456,야생화뜰,,G2,소매,G219,식물 소매,G21901,꽃집,G47851,화초 및 식물 소매업,48,경상남도,48250,김해시,48250620,장유2동,4825012900,대청동,4.83E+18,1,대지,828,1,경상남도 김해시 대청동 828-1,4.83E+11,경상남도 김해시 대청계곡길,56,,4.83E+24,,경상남도 김해시 대청계곡길 56,621280,50995,,,,128.7877919,35.18501414
MA010120220807736457,들꽃사랑,,G2,소매,G219,식물 소매,G21901,꽃집,G47851,화초 및 식물 소매업,48,경상남도,48127,창원시 마산회원구,48127550,회성동,4812710200,두척동,4.81E+18,1,대지,246,2,경상남도 창원시 마산회원구 두척동 246-2,4.81E+11,경상남도 창원시 마산회원구 북성로,410,,4.81E+24,,경상남도 창원시 마산회원구 북성로 410,630825,51310,,,,128.5536089,35.23516402
MA010120220807678433,스피드화원,,G2,소매,G219,식물 소매,G21901,꽃집,G47851,화초 및 식물 소매업,48,경상남도,48127,창원시 마산회원구,48127560,양덕1동,4812710500,양덕동,4.81E+18,1,대지,20,31,경상남도 창원시 마산회원구 양덕동 20-31,4.81E+11,경상남도 창원시 마산회원구 팔용로,39,,4.81E+24,,경상남도 창원시 마산회원구 팔용로 39,630809,51364,,,,128.5869193,35.23319068
MA010120220807654890,원조경,,G2,소매,G219,식물 소매,G21901,꽃집,G47851,화초 및 식물 소매업,48,경상남도,48240,사천시,48240320,사남면,4824032021,사남면,4.82E+18,1,대지,20,1,경상남도 사천시 사남면 죽천리 20-1,4.82E+11,경상남도 사천시 사남면 진삼로,1105,7,4.82E+24,,경상남도 사천시 사남면 진삼로 1105-7,664942,52536,,,,128.074331,35.05249933
MA010120220807788173,영풍식물원꽃집화원,,G2,소매,G219,식물 소매,G21901,꽃집,G47851,화초 및 식물 소매업,48,경상남도,48850,하동군,48850250,하동읍,4885025021,하동읍,4.89E+18,1,대지,233,27,경상남도 하동군 하동읍 읍내리 233-27,4.89E+11,경상남도 하동군 하동읍 시장3길,13,,4.89E+24,영풍꽃식물원,경상남도 하동군 하동읍 시장3길 13,667804,52330,,,,127.7500278,35.0687737
MA010120220807802025,파르코,,G2,소매,G219,식물 소매,G21901,꽃집,G47851,화초 및 식물 소매업,48,경상남도,48250,김해시,48250630,장유3동,4825013000,관동동,4.83E+18,1,대지,1115,5,경상남도 김해시 관동동 1115-5,4.83E+11,경상남도 김해시 관동로,145,,4.83E+24,,경상남도 김해시 관동로 145,621300,51005,,1,,128.8189816,35.17876386
MA010120220807783804,론디니,,G2,소매,G219,식물 소매,G21901,꽃집,G47851,화초 및 식물 소매업,48,경상남도,48121,창원시 의창구,48121530,명곡동,4812112400,명서동,4.81E+18,1,대지,3,10,경상남도 창원시 의창구 명서동 3-10,4.81E+11,경상남도 창원시 의창구 우곡로15번길,34,,4.81E+24,,경상남도 창원시 의창구 우곡로15번길 34,641812,51383,,2,,128.6393096,35.24882248
MA010120220807768967,그리니크,,G2,소매,G219,식물 소매,G21901,꽃집,G47851,화초 및 식물 소매업,48,경상남도,48121,창원시 의창구,48121510,의창동,4812110200,중동,4.81E+18,1,대지,760,4,경상남도 창원시 의창구 중동 760-4,4.81E+11,경상남도 창원시 의창구 의창대로282번길,6,,4.81E+24,,경상남도 창원시 의창구 의창대로282번길 6,641510,51380,,,,128.6287456,35.26059093
MA010120220807806417,산골다육,,G2,소매,G219,식물 소매,G21901,꽃집,G47851,화초 및 식물 소매업,48,경상남도,48860,산청군,48860380,신안면,4886038032,신안면,4.89E+18,1,대지,652,8,경상남도 산청군 신안면 중촌리 652-8,4.89E+11,경상남도 산청군 신안면 중촌갈전로,105,,4.89E+24,,경상남도 산청군 신안면 중촌갈전로 105,666963,52260,,,,127.9729232,35.31324842
MA010120220807952201,혜화당,,G2,소매,G219,식물 소매,G21901,꽃집,G47851,화초 및 식물 소매업,48,경상남도,48123,창원시 성산구,48123510,반송동,4812312400,반지동,4.81E+18,1,대지,84,1,경상남도 창원시 성산구 반지동 84-1,4.81E+11,경상남도 창원시 성산구 반지로,30,,4.81E+24,,경상남도 창원시 성산구 반지로 30,642820,51420,,,,128.6611455,35.24106255
MA010120220808037165,책방안가월든,,G2,소매,G219,식물 소매,G21901,꽃집,G47851,화초 및 식물 소매업,48,경상남도,48170,진주시,48170678,하대동,4817012000,하대동,4.82E+18,1,대지,126,18,경상남도 진주시 하대동 126-18,4.82E+11,경상남도 진주시 도동로184번길,7,1,4.82E+24,,경상남도 진주시 도동로184번길 7-1,660995,52777,,,,128.122964,35.18682222
MA010120220808022842,모네의정원,,G2,소매,G219,식물 소매,G21901,꽃집,G47851,화초 및 식물 소매업,48,경상남도,48250,김해시,48250630,장유3동,4825013100,율하동,4.83E+18,1,대지,1400,4,경상남도 김해시 율하동 1400-4,4.83E+11,경상남도 김해시 율하2로,171,1,4.83E+24,,경상남도 김해시 율하2로 171-1,621320,51018,,,,128.819125,35.16943425
MA010120220808012498,리디아플라워,,G2,소매,G219,식물 소매,G21901,꽃집,G47851,화초 및 식물 소매업,48,경상남도,48250,김해시,48250550,북부동,4825010700,삼계동,4.83E+18,1,대지,1295,,경상남도 김해시 삼계동 1295,4.83E+11,경상남도 김해시 안곡로,109,,4.83E+24,,경상남도 김해시 안곡로 109,621070,50845,,,,128.852179,35.27560723
MA010120220808052701,플레드플라워,,G2,소매,G219,식물 소매,G21901,꽃집,G47851,화초 및 식물 소매업,48,경상남도,48127,창원시 마산회원구,48127545,석전동,4812710400,석전동,4.81E+18,1,대지,242,9,경상남도 창원시 마산회원구 석전동 242-9,4.81E+11,경상남도 창원시 마산회원구 석전동로,16,,4.81E+24,,경상남도 창원시 마산회원구 석전동로 16,630807,51304,,,,128.5752649,35.23204517
MA010120220808045549,천년숲조경,,G2,소매,G219,식물 소매,G21901,꽃집,G47851,화초 및 식물 소매업,48,경상남도,48270,밀양시,48270380,무안면,4827038021,무안면,4.83E+18,1,대지,767,22,경상남도 밀양시 무안면 무안리 767-22,4.83E+11,경상남도 밀양시 무안면 사명로,478,,4.83E+24,,경상남도 밀양시 무안면 사명로 478,627874,50408,,,,128.6510585,35.46733121
MA010120220807991803,아원플라워,,G2,소매,G219,식물 소매,G21901,꽃집,G47851,화초 및 식물 소매업,48,경상남도,48123,창원시 성산구,48123560,성주동,4812311000,안민동,4.81E+18,1,대지,154,5,경상남도 창원시 성산구 안민동 154-5,4.81E+11,경상남도 창원시 성산구 안민안길5번길,10,,4.81E+24,,경상남도 창원시 성산구 안민안길5번길 10,642120,51549,,1,,128.6900231,35.18640025
MA010120220808122472,가은이꽃방,,G2,소매,G219,식물 소매,G21901,꽃집,G47851,화초 및 식물 소매업,48,경상남도,48730,함안군,48730320,군북면,4873032022,군북면,4.87E+18,1,대지,159,2,경상남도 함안군 군북면 중암리 159-2,4.87E+11,경상남도 함안군 군북면 중암10길,22,,4.87E+24,,경상남도 함안군 군북면 중암10길 22,637822,52066,,,,128.3463576,35.26350451
MA010120220808108353,다감플라워카페,,G2,소매,G219,식물 소매,G21901,꽃집,G47851,화초 및 식물 소매업,48,경상남도,48330,양산시,48330253,물금읍,4833025324,물금읍,4.83E+18,1,대지,2688,5,경상남도 양산시 물금읍 범어리 2688-5,4.83E+11,경상남도 양산시 물금읍 화합9길,18,,4.83E+24,,경상남도 양산시 물금읍 화합9길 18,626815,50610,,1,,129.011955,35.32947586
MA010120220808091409,티나플라워아로마샵,,G2,소매,G219,식물 소매,G21901,꽃집,G47851,화초 및 식물 소매업,48,경상남도,48125,창원시 마산합포구,48125530,월영동,4812515800,해운동,4.81E+18,1,대지,37,4,경상남도 창원시 마산합포구 해운동 37-4,4.81E+11,경상남도 창원시 마산합포구 월영동로,8,,4.81E+24,대동씨코아,경상남도 창원시 마산합포구 월영동로 8,631872,51749,,2,,128.5624438,35.17975023
MA010120220808102833,백만불플라워,,G2,소매,G219,식물 소매,G21901,꽃집,G47851,화초 및 식물 소매업,48,경상남도,48127,창원시 마산회원구,48127560,양덕1동,4812710500,양덕동,4.81E+18,1,대지,50,11,경상남도 창원시 마산회원구 양덕동 50-11,4.81E+11,경상남도 창원시 마산회원구 양덕동13길,5,,4.81E+24,,경상남도 창원시 마산회원구 양덕동13길 5,630809,51364,,,,128.5859767,35.23104008
MA010120220808172902,공유+,,G2,소매,G219,식물 소매,G21901,꽃집,G47851,화초 및 식물 소매업,48,경상남도,48121,창원시 의창구,48121540,봉림동,4812112500,사림동,4.81E+18,1,대지,20,3,경상남도 창원시 의창구 사림동 20-3,4.81E+11,경상남도 창원시 의창구 용지로275번길,33,,4.81E+24,,경상남도 창원시 의창구 용지로275번길 33,641824,51153,,,,128.6859097,35.2396566
MA010120220808282356,아델라이데,,G2,소매,G219,식물 소매,G21901,꽃집,G47851,화초 및 식물 소매업,48,경상남도,48129,창원시 진해구,48129600,자은동,4812914200,자은동,4.81E+18,1,대지,916,21,경상남도 창원시 진해구 자은동 916-21,4.81E+11,경상남도 창원시 진해구 덕산로45번길,20,,4.81E+24,,경상남도 창원시 진해구 덕산로45번길 20,645300,51647,,1,,128.704871,35.14779097
MA010120220808280714,삼강식물원,,G2,소매,G219,식물 소매,G21901,꽃집,G47851,화초 및 식물 소매업,48,경상남도,48127,창원시 마산회원구,48127250,내서읍,4812725025,내서읍,4.81E+18,1,대지,1531,,경상남도 창원시 마산회원구 내서읍 중리 1531,4.81E+11,경상남도 창원시 마산회원구 내서읍 호원로,145,,4.81E+24,,경상남도 창원시 마산회원구 내서읍 호원로 145,630857,51244,,,,128.524687,35.24750034
MA010120220808252646,꽃피우리,,G2,소매,G219,식물 소매,G21901,꽃집,G47851,화초 및 식물 소매업,48,경상남도,48123,창원시 성산구,48123515,용지동,4812313500,용호동,4.81E+18,1,대지,42,19,경상남도 창원시 성산구 용호동 42-19,4.81E+11,경상남도 창원시 성산구 외동반림로,278,,4.81E+24,,경상남도 창원시 성산구 외동반림로 278,641840,51428,,,,128.6816477,35.24125699
MA010120220808290941,원광조경개발,,G2,소매,G219,식물 소매,G21901,꽃집,G47851,화초 및 식물 소매업,48,경상남도,48820,고성군,48820250,고성읍,4882025022,고성읍,4.88E+18,1,대지,219,8,경상남도 고성군 고성읍 서외리 219-8,4.88E+11,경상남도 고성군 고성읍 성내로,55,,4.88E+24,,경상남도 고성군 고성읍 성내로 55,638808,52936,,1,,128.3155085,34.97673069
MA010120220808291142,자기(琦)사(舍)랑(琅),,G2,소매,G219,식물 소매,G21901,꽃집,G47851,화초 및 식물 소매업,48,경상남도,48121,창원시 의창구,48121530,명곡동,4812112400,명서동,4.81E+18,1,대지,169,3,경상남도 창원시 의창구 명서동 169-3,4.81E+11,경상남도 창원시 의창구 명서로111번길,3,1,4.81E+24,,경상남도 창원시 의창구 명서로111번길 3-1,641815,51175,,,,128.6488892,35.24717825
MA010120220808232420,꽃마실,,G2,소매,G219,식물 소매,G21901,꽃집,G47851,화초 및 식물 소매업,48,경상남도,48123,창원시 성산구,48123510,반송동,4812312400,반지동,4.81E+18,1,대지,71,9,경상남도 창원시 성산구 반지동 71-9,4.81E+11,경상남도 창원시 성산구 반송로42번길,23,22,4.81E+24,,경상남도 창원시 성산구 반송로42번길 23-22,642820,51420,,,,128.660953,35.23862289
MA010120220808353211,staywithyou,,G2,소매,G219,식물 소매,G21901,꽃집,G47851,화초 및 식물 소매업,48,경상남도,48123,창원시 성산구,48123515,용지동,4812313500,용호동,4.81E+18,1,대지,55,1,경상남도 창원시 성산구 용호동 55-1,4.81E+11,경상남도 창원시 성산구 외동반림로254번길,8,1,4.81E+24,,경상남도 창원시 성산구 외동반림로254번길 8-1,641840,51428,,,,128.6805676,35.23895587
MA010120220808342877,초록을더하다,,G2,소매,G219,식물 소매,G21901,꽃집,G47851,화초 및 식물 소매업,48,경상남도,48330,양산시,48330540,서창동,4833011400,삼호동,4.83E+18,1,대지,846,30,경상남도 양산시 삼호동 846-30,4.83E+11,경상남도 양산시 대운8길,32,27,4.83E+24,상가,경상남도 양산시 대운8길 32-27,626837,50525,,1,,129.1775302,35.40995876
MA010120220808381052,아미플레르,,G2,소매,G219,식물 소매,G21901,꽃집,G47851,화초 및 식물 소매업,48,경상남도,48125,창원시 마산합포구,48125565,반월중앙동,4812512300,신월동,4.81E+18,1,대지,18,17,경상남도 창원시 마산합포구 신월동 18-17,4.81E+11,경상남도 창원시 마산합포구 고운로,123,,4.81E+24,,경상남도 창원시 마산합포구 고운로 123,631170,51760,,,,128.5607867,35.1929748
MA010120220808383226,준플라워,,G2,소매,G219,식물 소매,G21901,꽃집,G47851,화초 및 식물 소매업,48,경상남도,48250,김해시,48250565,칠산서부동,4825011500,전하동,4.83E+18,1,대지,41,3,경상남도 김해시 전하동 41-3,4.83E+11,경상남도 김해시 전하로208번길,56,15,4.83E+24,,경상남도 김해시 전하로208번길 56-15,621100,50939,,1,,128.873637,35.22435079
MA010120220808443343,플라워안,,G2,소매,G219,식물 소매,G21901,꽃집,G47851,화초 및 식물 소매업,48,경상남도,48123,창원시 성산구,48123515,용지동,4812313600,신월동,4.81E+18,1,대지,25,6,경상남도 창원시 성산구 신월동 25-6,4.81E+11,경상남도 창원시 성산구 신월로71번길,6,,4.81E+24,,경상남도 창원시 성산구 신월로71번길 6,641837,51441,,,,128.69522,35.2267563
MA010120220808414208,마음정원힐링원예치료센터,,G2,소매,G219,식물 소매,G21901,꽃집,G47851,화초 및 식물 소매업,48,경상남도,48125,창원시 마산합포구,48125540,문화동,4812515200,창포동2가,4.81E+18,1,대지,1,48,경상남도 창원시 마산합포구 창포동2가 1-48,4.81E+11,경상남도 창원시 마산합포구 문화동9길,27,,4.81E+24,,경상남도 창원시 마산합포구 문화동9길 27,631380,51741,,,,128.5615206,35.18370958
MA010120220808423085,호암정원,,G2,소매,G219,식물 소매,G21901,꽃집,G47851,화초 및 식물 소매업,48,경상남도,48850,하동군,48850250,하동읍,4885025026,하동읍,4.89E+18,2,산,219,,경상남도 하동군 하동읍 흥룡리 산219,4.89E+11,경상남도 하동군 하동읍 범바위길,70,,4.89E+24,,경상남도 하동군 하동읍 범바위길 70,667802,52322,,,,127.7074863,35.10637212
MA010120220808423264,유송플라워;69플라워,,G2,소매,G219,식물 소매,G21901,꽃집,G47851,화초 및 식물 소매업,48,경상남도,48330,양산시,48330515,양주동,4833010300,중부동,4.83E+18,1,대지,678,8,경상남도 양산시 중부동 678-8,4.83E+11,경상남도 양산시 양주4길,22,1,4.83E+24,,경상남도 양산시 양주4길 22-1,626050,50620,,1,,129.0307205,35.34025508
MA010120220808452941,에덴식물원,,G2,소매,G219,식물 소매,G21901,꽃집,G47851,화초 및 식물 소매업,48,경상남도,48125,창원시 마산합포구,48125510,현동,4812513800,우산동,4.81E+18,1,대지,491,1,경상남도 창원시 마산합포구 우산동 491-1,4.81E+11,경상남도 창원시 마산합포구 밤밭고개로,154,,4.81E+24,늘봄들꽃식물원,경상남도 창원시 마산합포구 밤밭고개로 154,631270,51777,,,,128.5520782,35.15590137
MA010120220808523031,로리타,,G2,소매,G219,식물 소매,G21901,꽃집,G47851,화초 및 식물 소매업,48,경상남도,48170,진주시,48170695,초장동,4817012200,초전동,4.82E+18,1,대지,1725,4,경상남도 진주시 초전동 1725-4,4.82E+11,경상남도 진주시 초전북로61번길,15,14,4.82E+24,,경상남도 진주시 초전북로61번길 15-14,660360,52731,,,,128.1124287,35.2096772
MA010120220808473098,산들화원,,G2,소매,G219,식물 소매,G21901,꽃집,G47851,화초 및 식물 소매업,48,경상남도,48121,창원시 의창구,48121310,북면,4812131027,북면,4.81E+18,1,대지,246,1,경상남도 창원시 의창구 북면 외감리 246-1,4.81E+11,경상남도 창원시 의창구 북면 화천로,25,,4.81E+24,,경상남도 창원시 의창구 북면 화천로 25,641871,51110,,,,128.6022048,35.29825601
MA010120220808612696,에덴화원,,G2,소매,G219,식물 소매,G21901,꽃집,G47851,화초 및 식물 소매업,48,경상남도,48121,창원시 의창구,48121530,명곡동,4812112400,명서동,4.81E+18,1,대지,96,9,경상남도 창원시 의창구 명서동 96-9,4.81E+11,경상남도 창원시 의창구 원이대로196번길,10,1,4.81E+24,,경상남도 창원시 의창구 원이대로196번길 10-1,641814,51384,,2,,128.6417982,35.24584174
MA010120220808612853,마튜리티플레르,,G2,소매,G219,식물 소매,G21901,꽃집,G47851,화초 및 식물 소매업,48,경상남도,48330,양산시,48330310,동면,4833031027,동면,4.83E+18,1,대지,1416,10,경상남도 양산시 동면 금산리 1416-10,4.83E+11,경상남도 양산시 동면 금오6길,24,15,4.83E+24,,경상남도 양산시 동면 금오6길 24-15,626821,50639,,1,,129.0222606,35.31278581
MA010120220808553216,이삭농원,,G2,소매,G219,식물 소매,G21901,꽃집,G47851,화초 및 식물 소매업,48,경상남도,48310,거제시,48310340,거제면,4831034028,거제면,4.83E+18,1,대지,29,226,경상남도 거제시 거제면 남동리 29-226,4.83E+11,경상남도 거제시 거제면 읍내로7길,24,,4.83E+24,,경상남도 거제시 거제면 읍내로7길 24,656862,53286,,,,128.5906623,34.84754727
MA010120220808563393,화환꽃배달화랑근조화환축하화환꽃집,,G2,소매,G219,식물 소매,G21901,꽃집,G47851,화초 및 식물 소매업,48,경상남도,48121,창원시 의창구,48121540,봉림동,4812111600,봉림동,4.81E+18,1,대지,708,7,경상남도 창원시 의창구 봉림동 708-7,4.81E+11,경상남도 창원시 의창구 소봉로7번길,28,,4.81E+24,,경상남도 창원시 의창구 소봉로7번길 28,641242,51157,,,,128.6692225,35.25031505
MA010120220808669508,아이엠유어썸머,,G2,소매,G219,식물 소매,G21901,꽃집,G47851,화초 및 식물 소매업,48,경상남도,48250,김해시,48250520,회현동,4825010400,봉황동,4.83E+18,1,대지,7,10,경상남도 김해시 봉황동 7-10,4.83E+11,경상남도 김해시 김해대로2325번길,39,1,4.83E+24,,경상남도 김해시 김해대로2325번길 39-1,621040,50920,,,,128.8804537,35.22991352
MA010120220808650492,원스윗데이,,G2,소매,G219,식물 소매,G21901,꽃집,G47851,화초 및 식물 소매업,48,경상남도,48129,창원시 진해구,48129610,덕산동,4812914200,자은동,4.81E+18,1,대지,657,35,경상남도 창원시 진해구 자은동 657-35,4.81E+11,경상남도 창원시 진해구 덕산로46번길,34,,4.81E+24,,경상남도 창원시 진해구 덕산로46번길 34,645310,51648,,,,128.704917,35.14315802
MA010120220808703471,와일드플라워,,G2,소매,G219,식물 소매,G21901,꽃집,G47851,화초 및 식물 소매업,48,경상남도,48220,통영시,48220340,광도면,4822034024,광도면,4.82E+18,1,대지,1572,7,경상남도 통영시 광도면 죽림리 1572-7,4.82E+11,경상남도 통영시 광도면 죽림5로,55,32,4.82E+24,,경상남도 통영시 광도면 죽림5로 55-32,650829,53014,,1,,128.4218273,34.88372598
MA010120220808763300,플라주,,G2,소매,G219,식물 소매,G21901,꽃집,G47851,화초 및 식물 소매업,48,경상남도,48240,사천시,48240320,사남면,4824032025,사남면,4.82E+18,2,산,28,42,경상남도 사천시 사남면 월성리 산28-42,4.82E+11,경상남도 사천시 사남면 조동길,49,21,4.82E+24,,경상남도 사천시 사남면 조동길 49-21,664942,52533,,,,128.066837,35.06032585
MA010120220808743772,보물섬다육,,G2,소매,G219,식물 소매,G21901,꽃집,G47851,화초 및 식물 소매업,48,경상남도,48840,남해군,48840250,남해읍,4884025026,남해읍,4.88E+18,1,대지,1004,,경상남도 남해군 남해읍 심천리 1004,4.88E+11,경상남도 남해군 남해읍 남해대로,2951,49,4.88E+24,,경상남도 남해군 남해읍 남해대로 2951-49,668804,52412,,,,127.8896776,34.84909861
MA010120220808743181,유리병속작은뜰황금정원,,G2,소매,G219,식물 소매,G21901,꽃집,G47851,화초 및 식물 소매업,48,경상남도,48170,진주시,48170673,상대동,4817011900,상대동,4.82E+18,1,대지,247,18,경상남도 진주시 상대동 247-18,4.82E+11,경상남도 진주시 돗골로147번길,12,,4.82E+24,,경상남도 진주시 돗골로147번길 12,660806,52791,,1,,128.1108792,35.18137267
MA010120220808729334,내손에꽃,,G2,소매,G219,식물 소매,G21901,꽃집,G47851,화초 및 식물 소매업,48,경상남도,48250,김해시,48250370,대동면,4825037022,대동면,4.83E+18,1,대지,343,4,경상남도 김해시 대동면 주중리 343-4,4.83E+11,경상남도 김해시 대동면 주중길,71,,4.83E+24,,경상남도 김해시 대동면 주중길 71,621899,50810,,,,128.9440806,35.23965902
MA010120220808830883,메리에이치,,G2,소매,G219,식물 소매,G21901,꽃집,G47851,화초 및 식물 소매업,48,경상남도,48250,김해시,48250630,장유3동,4825013000,관동동,4.83E+18,1,대지,137,29,경상남도 김해시 관동동 137-29,4.83E+11,경상남도 김해시 관동로27번길,121,,4.83E+24,,경상남도 김해시 관동로27번길 121,621300,51005,,,,128.8187129,35.17902023
MA010120220808799436,까사베르데,,G2,소매,G219,식물 소매,G21901,꽃집,G47851,화초 및 식물 소매업,48,경상남도,48220,통영시,48220700,무전동,4822011100,무전동,4.82E+18,1,대지,684,,경상남도 통영시 무전동 684,4.82E+11,경상남도 통영시 무전7길,48,,4.82E+24,,경상남도 통영시 무전7길 48,650800,53034,,1,,128.4274141,34.86208326
MA010120220809007623,상록수,,G2,소매,G219,식물 소매,G21901,꽃집,G47851,화초 및 식물 소매업,48,경상남도,48170,진주시,48170360,일반성면,4817036021,일반성면,4.82E+18,1,대지,621,,경상남도 진주시 일반성면 창촌리 621,4.82E+11,경상남도 진주시 일반성면 동부로1959번길,6,7,4.82E+24,,경상남도 진주시 일반성면 동부로1959번길 6-7,660863,52616,,,,128.2776095,35.17152686
MA010120220809010100,무지개꽃집,,G2,소매,G219,식물 소매,G21901,꽃집,G47851,화초 및 식물 소매업,48,경상남도,48240,사천시,48240570,향촌동,4824011600,향촌동,4.82E+18,1,대지,987,18,경상남도 사천시 향촌동 987-18,4.82E+11,경상남도 사천시 향촌2길,16,,4.82E+24,,경상남도 사천시 향촌2길 16,664220,52562,,,,128.0910471,34.93209492
MA010120220809219346,하우스플라워,,G2,소매,G219,식물 소매,G21901,꽃집,G47851,화초 및 식물 소매업,48,경상남도,48240,사천시,48240250,사천읍,4824025024,사천읍,4.82E+18,1,대지,827,,경상남도 사천시 사천읍 수석리 827,4.82E+11,경상남도 사천시 사천읍 구암두문로,17,17,4.82E+24,,경상남도 사천시 사천읍 구암두문로 17-17,664804,52516,,,,128.0884978,35.08677632
MA010120220809276344,꽃:역FLOWERSTATION,,G2,소매,G219,식물 소매,G21901,꽃집,G47851,화초 및 식물 소매업,48,경상남도,48125,창원시 마산합포구,48125610,교방동,4812511900,상남동,4.81E+18,1,대지,14,11,경상남도 창원시 마산합포구 상남동 14-11,4.81E+11,경상남도 창원시 마산합포구 북성로,79,1,4.81E+24,,경상남도 창원시 마산합포구 북성로 79-1,631850,51274,,,,128.5707174,35.21437697
MA010120220809263032,해인부동산공인중개사사무소,,G2,소매,G219,식물 소매,G21901,꽃집,G47851,화초 및 식물 소매업,48,경상남도,48250,김해시,48250250,진영읍,4825025027,진영읍,4.83E+18,1,대지,700,26,경상남도 김해시 진영읍 여래리 700-26,4.83E+11,경상남도 김해시 진영읍 여래로,33,,4.83E+24,,경상남도 김해시 진영읍 여래로 33,621806,50868,,3,,128.7347391,35.30313215
MA010120220809546643,더플라워컴퍼니,,G2,소매,G219,식물 소매,G21901,꽃집,G47851,화초 및 식물 소매업,48,경상남도,48880,거창군,48880380,남하면,4888038022,남하면,4.89E+18,1,대지,1047,3,경상남도 거창군 남하면 양항리 1047-3,4.89E+11,경상남도 거창군 남하면 양항길,253,14,4.89E+24,,경상남도 거창군 남하면 양항길 253-14,670892,50121,,,,127.9415975,35.68262922
MA010120220809547291,도희플라워,,G2,소매,G219,식물 소매,G21901,꽃집,G47851,화초 및 식물 소매업,48,경상남도,48123,창원시 성산구,48123510,반송동,4812312400,반지동,4.81E+18,1,대지,50,24,경상남도 창원시 성산구 반지동 50-24,4.81E+11,경상남도 창원시 성산구 반송로,45,,4.81E+24,,경상남도 창원시 성산구 반송로 45,642820,51418,,,,128.6622708,35.24129944
MA010120220809689006,순이네식물원,,G2,소매,G219,식물 소매,G21901,꽃집,G47851,화초 및 식물 소매업,48,경상남도,48170,진주시,48170440,명석면,4817044028,명석면,4.82E+18,1,대지,332,,경상남도 진주시 명석면 오미리 332,4.82E+11,경상남도 진주시 명석면 진주대로,2229,1,4.82E+24,,경상남도 진주시 명석면 진주대로 2229-1,660951,52640,,,,127.9937383,35.25026782
MA010120220809689182,갑순이꽃집,,G2,소매,G219,식물 소매,G21901,꽃집,G47851,화초 및 식물 소매업,48,경상남도,48240,사천시,48240340,축동면,4824034021,축동면,4.82E+18,1,대지,780,14,경상남도 사천시 축동면 배춘리 780-14,4.82E+11,경상남도 사천시 축동면 사천대로,2136,,4.82E+24,,경상남도 사천시 축동면 사천대로 2136,664812,52510,,1,,128.0896723,35.10499934
MA010120220809678997,피움꽃집,,G2,소매,G219,식물 소매,G21901,꽃집,G47851,화초 및 식물 소매업,48,경상남도,48170,진주시,48170695,초장동,4817012200,초전동,4.82E+18,1,대지,1722,2,경상남도 진주시 초전동 1722-2,4.82E+11,경상남도 진주시 초전북로61번길,20,23,4.82E+24,,경상남도 진주시 초전북로61번길 20-23,660360,52731,,,,128.1149936,35.21093344
MA010120220809706665,다미꽃방,,G2,소매,G219,식물 소매,G21901,꽃집,G47851,화초 및 식물 소매업,48,경상남도,48123,창원시 성산구,48123520,중앙동,4812312500,중앙동,4.81E+18,1,대지,150,1,경상남도 창원시 성산구 중앙동 150-1,4.81E+11,경상남도 창원시 성산구 외동반림로,9,,4.81E+24,반,경상남도 창원시 성산구 외동반림로 9,642030,51524,,,,128.6734608,35.22132738
MA010120220809653740,하늘정원,,G2,소매,G219,식물 소매,G21901,꽃집,G47851,화초 및 식물 소매업,48,경상남도,48121,창원시 의창구,48121530,명곡동,4812112400,명서동,4.81E+18,1,대지,54,9,경상남도 창원시 의창구 명서동 54-9,4.81E+11,경상남도 창원시 의창구 명지로63번길,27,,4.81E+24,,경상남도 창원시 의창구 명지로63번길 27,641813,51173,,,,128.6481846,35.25036015
MA010120220809768833,진이플라워,,G2,소매,G219,식물 소매,G21901,꽃집,G47851,화초 및 식물 소매업,48,경상남도,48129,창원시 진해구,48129650,웅동2동,4812916400,용원동,4.81E+18,1,대지,1202,14,경상남도 창원시 진해구 용원동 1202-14,4.81E+11,경상남도 창원시 진해구 용재로,11,1,4.81E+24,,경상남도 창원시 진해구 용재로 11-1,645510,51605,,1,,128.8112833,35.10233956
MA010120220809759005,제리플라워,,G2,소매,G219,식물 소매,G21901,꽃집,G47851,화초 및 식물 소매업,48,경상남도,48270,밀양시,48270310,부북면,4827031022,부북면,4.83E+18,2,산,106,,경상남도 밀양시 부북면 전사포리 산106,4.83E+11,경상남도 밀양시 부북면 사포공단1길,42,2,4.83E+24,,경상남도 밀양시 부북면 사포공단1길 42-2,627854,50404,,2,,128.7433292,35.46848462
MA010120220809749204,해랑꽃,,G2,소매,G219,식물 소매,G21901,꽃집,G47851,화초 및 식물 소매업,48,경상남도,48250,김해시,48250600,불암동,4825012100,지내동,4.83E+18,1,대지,67,,경상남도 김해시 지내동 67,4.83E+11,경상남도 김해시 김해대로2715번길,36,,4.83E+24,양지마을동원1차,경상남도 김해시 김해대로2715번길 36,621780,50828,,,,128.9230717,35.23053241
MA010120220809844080,청솔조경식물원,,G2,소매,G219,식물 소매,G21901,꽃집,G47851,화초 및 식물 소매업,48,경상남도,48270,밀양시,48270520,내이동,4827010200,내이동,4.83E+18,1,대지,1565,9,경상남도 밀양시 내이동 1565-9,4.83E+11,경상남도 밀양시 북성로,31,4,4.83E+24,,경상남도 밀양시 북성로 31-4,627130,50423,,,,128.746249,35.49906428
MA010120220809825327,지리산산초,,G2,소매,G219,식물 소매,G21901,꽃집,G47851,화초 및 식물 소매업,48,경상남도,48850,하동군,48850340,횡천면,4885034021,횡천면,4.89E+18,1,대지,508,,경상남도 하동군 횡천면 전대리 508,4.89E+11,경상남도 하동군 횡천면 숙재1길,244,,4.89E+24,,경상남도 하동군 횡천면 숙재1길 244,667842,52319,,,,127.8268642,35.13893894
MA010120220809838760,뷰티플라워,,G2,소매,G219,식물 소매,G21901,꽃집,G47851,화초 및 식물 소매업,48,경상남도,48250,김해시,48250530,부원동,4825010300,부원동,4.83E+18,1,대지,253,,경상남도 김해시 부원동 253,4.83E+11,경상남도 김해시 김해대로2272번안길,120,,4.83E+24,,경상남도 김해시 김해대로2272번안길 120,621907,50935,,,,128.8883844,35.225212
MA010120220809838944,러스틱가든,,G2,소매,G219,식물 소매,G21901,꽃집,G47851,화초 및 식물 소매업,48,경상남도,48250,김해시,48250550,북부동,4825010600,구산동,4.83E+18,1,대지,249,22,경상남도 김해시 구산동 249-22,4.83E+11,경상남도 김해시 구산로42번길,18,,4.83E+24,,경상남도 김해시 구산로42번길 18,621900,50910,,,,128.8727396,35.2469394
MA010120220809868984,서연예술원,,G2,소매,G219,식물 소매,G21901,꽃집,G47851,화초 및 식물 소매업,48,경상남도,48125,창원시 마산합포구,48125330,진북면,4812533033,진북면,4.81E+18,1,대지,236,3,경상남도 창원시 마산합포구 진북면 추곡리 236-3,4.81E+11,경상남도 창원시 마산합포구 진북면 추곡1길,327,,4.81E+24,,경상남도 창원시 마산합포구 진북면 추곡1길 327,631822,51788,,,,128.4872511,35.16288827
MA010120220809801299,플라워현,,G2,소매,G219,식물 소매,G21901,꽃집,G47851,화초 및 식물 소매업,48,경상남도,48820,고성군,48820430,거류면,4882043026,거류면,4.88E+18,1,대지,165,4,경상남도 고성군 거류면 송산리 165-4,4.88E+11,경상남도 고성군 거류면 송산로,308,13,4.88E+24,,경상남도 고성군 거류면 송산로 308-13,638833,52924,,,,128.3776356,34.97582532
MA010120220809928781,로지플라워,,G2,소매,G219,식물 소매,G21901,꽃집,G47851,화초 및 식물 소매업,48,경상남도,48170,진주시,48170710,평거동,4817012500,신안동,4.82E+18,1,대지,424,20,경상남도 진주시 신안동 424-20,4.82E+11,경상남도 진주시 진양호로,321,1,4.82E+24,,경상남도 진주시 진양호로 321-1,660907,52676,,1,,128.0663914,35.18181764
MA010120220809918840,에핀,,G2,소매,G219,식물 소매,G21901,꽃집,G47851,화초 및 식물 소매업,48,경상남도,48250,김해시,48250360,상동면,4825036025,상동면,4.83E+18,1,대지,1086,1,경상남도 김해시 상동면 우계리 1086-1,4.83E+11,경상남도 김해시 상동면 상동로,109,,4.83E+24,EPIN,경상남도 김해시 상동면 상동로 109,621816,50805,,,,128.8861988,35.2972594
MA010120220809918883,라포레,,G2,소매,G219,식물 소매,G21901,꽃집,G47851,화초 및 식물 소매업,48,경상남도,48170,진주시,48170410,금산면,4817041026,금산면,4.82E+18,1,대지,191,1,경상남도 진주시 금산면 중천리 191-1,4.82E+11,경상남도 진주시 금산면 금산로,113,,4.82E+24,,경상남도 진주시 금산면 금산로 113,660923,52630,,,,128.1483727,35.21364074
MA010120220809909160,사구려플라워,,G2,소매,G219,식물 소매,G21901,꽃집,G47851,화초 및 식물 소매업,48,경상남도,48121,창원시 의창구,48121530,명곡동,4812112400,명서동,4.81E+18,1,대지,180,18,경상남도 창원시 의창구 명서동 180-18,4.81E+11,경상남도 창원시 의창구 명서로141번길,24,,4.81E+24,반,경상남도 창원시 의창구 명서로141번길 24,641815,51175,,,,128.6481455,35.24408818
MA010120220809948735,애도,,G2,소매,G219,식물 소매,G21901,꽃집,G47851,화초 및 식물 소매업,48,경상남도,48129,창원시 진해구,48129530,충무동,4812910200,도천동,4.81E+18,1,대지,8,2,경상남도 창원시 진해구 도천동 8-2,4.81E+11,경상남도 창원시 진해구 여명로,1,,4.81E+24,,경상남도 창원시 진해구 여명로 1,645230,51699,,,,128.6553776,35.15338013
MA010120220809952632,플라워,데일리,G2,소매,G219,식물 소매,G21901,꽃집,G47851,화초 및 식물 소매업,48,경상남도,48123,창원시 성산구,48123550,가음정동,4812313300,남양동,4.81E+18,1,대지,20,,경상남도 창원시 성산구 남양동 20,4.81E+11,경상남도 창원시 성산구 대정로,77,,4.81E+24,성원1차,경상남도 창원시 성산구 대정로 77,642751,51483,,1,,128.7009823,35.21078699
MA010120220809958817,지리산난농원,,G2,소매,G219,식물 소매,G21901,꽃집,G47851,화초 및 식물 소매업,48,경상남도,48860,산청군,48860250,산청읍,4886025032,산청읍,4.89E+18,1,대지,564,,경상남도 산청군 산청읍 범학리 564,4.89E+11,경상남도 산청군 산청읍 범학길,195,,4.89E+24,,경상남도 산청군 산청읍 범학길 195,666801,52213,,,,127.9165195,35.38576549
MA010120220810010088,므네모더,,G2,소매,G219,식물 소매,G21901,꽃집,G47851,화초 및 식물 소매업,48,경상남도,48121,창원시 의창구,48121520,팔룡동,4812112900,팔용동,4.81E+18,1,대지,99,2,경상남도 창원시 의창구 팔용동 99-2,4.81E+11,경상남도 창원시 의창구 팔용로,416,,4.81E+24,,경상남도 창원시 의창구 팔용로 416,641848,51378,,,,128.6120648,35.25386592
MA010120220810001954,봉황역숲;봉황역숨,,G2,소매,G219,식물 소매,G21901,꽃집,G47851,화초 및 식물 소매업,48,경상남도,48250,김해시,48250565,칠산서부동,4825011500,전하동,4.83E+18,1,대지,31,26,경상남도 김해시 전하동 31-26,4.83E+11,경상남도 김해시 김해대로,2254,,4.83E+24,,경상남도 김해시 김해대로 2254,621100,50939,,1,,128.8739743,35.22659854
MA010120220810008538,마메들다육이,,G2,소매,G219,식물 소매,G21901,꽃집,G47851,화초 및 식물 소매업,48,경상남도,48870,함양군,48870360,안의면,4887036030,안의면,4.89E+18,1,대지,20,,경상남도 함양군 안의면 대대리 20,4.89E+11,경상남도 함양군 안의면 거안로,395,,4.89E+24,,경상남도 함양군 안의면 거안로 395,676822,50006,,,,127.8267986,35.66934075
MA010120220809998517,중앙플라워,,G2,소매,G219,식물 소매,G21901,꽃집,G47851,화초 및 식물 소매업,48,경상남도,48240,사천시,48240250,사천읍,4824025026,사천읍,4.82E+18,1,대지,616,,경상남도 사천시 사천읍 용당리 616,4.82E+11,경상남도 사천시 사천읍 항공로,59,16,4.82E+24,,경상남도 사천시 사천읍 항공로 59-16,664802,52527,,,,128.0778317,35.07950784
MA010120220809978778,향일플라워,,G2,소매,G219,식물 소매,G21901,꽃집,G47851,화초 및 식물 소매업,48,경상남도,48820,고성군,48820250,고성읍,4882025024,고성읍,4.88E+18,1,대지,246,3,경상남도 고성군 고성읍 동외리 246-3,4.88E+11,경상남도 고성군 고성읍 중앙로80번길,42,,4.88E+24,,경상남도 고성군 고성읍 중앙로80번길 42,638803,52941,,,,128.3294801,34.97328874
MA010120220810118853,선플라워아트,,G2,소매,G219,식물 소매,G21901,꽃집,G47851,화초 및 식물 소매업,48,경상남도,48250,김해시,48250630,장유3동,4825013000,관동동,4.83E+18,1,대지,467,19,경상남도 김해시 관동동 467-19,4.83E+11,경상남도 김해시 덕정로138번안길,33,,4.83E+24,일부,경상남도 김해시 덕정로138번안길 33,621300,51012,,,,128.8027367,35.17727649
MA010120220810043859,버들피리플라워까페,,G2,소매,G219,식물 소매,G21901,꽃집,G47851,화초 및 식물 소매업,48,경상남도,48125,창원시 마산합포구,48125650,산호동,4812511800,산호동,4.81E+18,1,대지,17,1,경상남도 창원시 마산합포구 산호동 17-1,4.81E+11,경상남도 창원시 마산합포구 산호북2길,1,,4.81E+24,,경상남도 창원시 마산합포구 산호북2길 1,631852,51330,,,,128.5870494,35.21675048
MA010120220810168359,라블룸,,G2,소매,G219,식물 소매,G21901,꽃집,G47851,화초 및 식물 소매업,48,경상남도,48123,창원시 성산구,48123520,중앙동,4812312700,상남동,4.81E+18,1,대지,76,3,경상남도 창원시 성산구 상남동 76-3,4.81E+11,경상남도 창원시 성산구 상남로,89,,4.81E+24,화신상가,경상남도 창원시 성산구 상남로 89,642831,51494,,1,,128.6807425,35.22187536
MA010120220810142261,화니피는정원,,G2,소매,G219,식물 소매,G21901,꽃집,G47851,화초 및 식물 소매업,48,경상남도,48127,창원시 마산회원구,48127560,양덕1동,4812710500,양덕동,4.81E+18,1,대지,51,42,경상남도 창원시 마산회원구 양덕동 51-42,4.81E+11,경상남도 창원시 마산회원구 양덕동12길,9,,4.81E+24,,경상남도 창원시 마산회원구 양덕동12길 9,630809,51364,,,,128.5856027,35.22988239
MA010120220810188111,일심Flower,,G2,소매,G219,식물 소매,G21901,꽃집,G47851,화초 및 식물 소매업,48,경상남도,48121,창원시 의창구,48121520,팔룡동,4812112900,팔용동,4.81E+18,1,대지,39,1,경상남도 창원시 의창구 팔용동 39-1,4.81E+11,경상남도 창원시 의창구 사화로,242,,4.81E+24,창원화훼단지,경상남도 창원시 의창구 사화로 242,641847,51391,,,,128.6298045,35.24487736
MA010120220810188217,은하플라워,,G2,소매,G219,식물 소매,G21901,꽃집,G47851,화초 및 식물 소매업,48,경상남도,48127,창원시 마산회원구,48127590,합성2동,4812710600,합성동,4.81E+18,1,대지,317,27,경상남도 창원시 마산회원구 합성동 317-27,4.81E+11,경상남도 창원시 마산회원구 팔용로,125,,4.81E+24,,경상남도 창원시 마산회원구 팔용로 125,630818,51355,,1,,128.5894542,35.24038528
MA010120220810198163,하동다육맘,,G2,소매,G219,식물 소매,G21901,꽃집,G47851,화초 및 식물 소매업,48,경상남도,48850,하동군,48850330,적량면,4885033025,적량면,4.89E+18,1,대지,1248,,경상남도 하동군 적량면 동산리 1248,4.89E+11,경상남도 하동군 적량면 계성길,22,18,4.89E+24,,경상남도 하동군 적량면 계성길 22-18,667831,52321,,,,127.770875,35.07293339
MA010120220810194613,레인보우다육,,G2,소매,G219,식물 소매,G21901,꽃집,G47851,화초 및 식물 소매업,48,경상남도,48250,김해시,48250530,부원동,4825010300,부원동,4.83E+18,1,대지,928,3,경상남도 김해시 부원동 928-3,4.83E+11,경상남도 김해시 김해대로2272번안길,78,,4.83E+24,,경상남도 김해시 김해대로2272번안길 78,621907,50940,,,,128.8836156,35.22415984
MA010120220810198308,플라꽃집,,G2,소매,G219,식물 소매,G21901,꽃집,G46204,화훼류 및 식물 도매업,48,경상남도,48850,하동군,48850390,북천면,4885039023,북천면,4.89E+18,1,대지,243,4,경상남도 하동군 북천면 직전리 243-4,4.89E+11,경상남도 하동군 북천면 곤북로,971,,4.89E+24,,경상남도 하동군 북천면 곤북로 971,667873,52318,,,,127.8889335,35.09633534
MA010120220810188511,그랑로즈,,G2,소매,G219,식물 소매,G21901,꽃집,G47851,화초 및 식물 소매업,48,경상남도,48129,창원시 진해구,48129600,자은동,4812914200,자은동,4.81E+18,1,대지,910,,경상남도 창원시 진해구 자은동 910,4.81E+11,경상남도 창원시 진해구 냉천로,88,,4.81E+24,대동빌라트,경상남도 창원시 진해구 냉천로 88,645761,51596,,2,,128.7079078,35.15134408
MA010120220810188955,오드플라워,,G2,소매,G219,식물 소매,G21901,꽃집,G47851,화초 및 식물 소매업,48,경상남도,48330,양산시,48330540,서창동,4833011500,명동,4.83E+18,1,대지,1079,3,경상남도 양산시 명동 1079-3,4.83E+11,경상남도 양산시 대운로,145,,4.83E+24,명동삼한사랑채아파트,경상남도 양산시 대운로 145,626250,50536,,1,,129.1695075,35.40302949
MA010120220810128333,시집간들꽃삼촌,,G2,소매,G219,식물 소매,G21901,꽃집,G47851,화초 및 식물 소매업,48,경상남도,48125,창원시 마산합포구,48125330,진북면,4812533024,진북면,4.81E+18,1,대지,47,,경상남도 창원시 마산합포구 진북면 대평리 47,4.81E+11,경상남도 창원시 마산합포구 진북면 진북신촌로,32,,4.81E+24,,경상남도 창원시 마산합포구 진북면 진북신촌로 32,631821,51786,,,,128.4700503,35.12915677
MA010120220810257708,김천꽃집,,G2,소매,G219,식물 소매,G21901,꽃집,G47851,화초 및 식물 소매업,48,경상남도,48330,양산시,48330530,강서동,4833011000,교동,4.83E+18,1,대지,164,,경상남도 양산시 교동 164,4.83E+11,경상남도 양산시 교동5길,3,,4.83E+24,,경상남도 양산시 교동5길 3,626210,50593,,,,129.0284075,35.34539441
MA010120220810233316,꽃곱다and경남MTB,,G2,소매,G219,식물 소매,G21901,꽃집,G47851,화초 및 식물 소매업,48,경상남도,48123,창원시 성산구,48123560,성주동,4812310600,남산동,4.81E+18,1,대지,601,1,경상남도 창원시 성산구 남산동 601-1,4.81E+11,경상남도 창원시 성산구 정동로,164,,4.81E+24,대우사원2차,경상남도 창원시 성산구 정동로 164,642956,51536,,,,128.6918548,35.20484971
MA010120220810235688,꽃향,,G2,소매,G219,식물 소매,G21901,꽃집,G47851,화초 및 식물 소매업,48,경상남도,48170,진주시,48170750,충무공동,4817013700,충무공동,4.82E+18,1,대지,287,6,경상남도 진주시 충무공동 287-6,4.82E+11,경상남도 진주시 에나로,146,,4.82E+24,라온프라이빗시티,경상남도 진주시 에나로 146,660031,52856,,,,128.1445812,35.17666953
MA010120220810268140,기쁨플라워,,G2,소매,G219,식물 소매,G21901,꽃집,G47851,화초 및 식물 소매업,48,경상남도,48310,거제시,48310580,고현동,4831010900,고현동,4.83E+18,1,대지,993,11,경상남도 거제시 고현동 993-11,4.83E+11,경상남도 거제시 중곡2로4길,7,5,4.83E+24,,경상남도 거제시 중곡2로4길 7-5,656936,53249,,1,,128.6277371,34.89482424
MA010120220810336014,함양제일조경,,G2,소매,G219,식물 소매,G21901,꽃집,G47851,화초 및 식물 소매업,48,경상남도,48870,함양군,48870310,마천면,4887031029,마천면,4.89E+18,1,대지,155,1,경상남도 함양군 마천면 구양리 155-1,4.89E+11,경상남도 함양군 마천면 지리산가는길,525,,4.89E+24,,경상남도 함양군 마천면 지리산가는길 525,676913,50056,,,,127.6921193,35.44222974
MA010120220810337819,보타니카,,G2,소매,G219,식물 소매,G21901,꽃집,G47851,화초 및 식물 소매업,48,경상남도,48170,진주시,48170678,하대동,4817012000,하대동,4.82E+18,1,대지,347,17,경상남도 진주시 하대동 347-17,4.82E+11,경상남도 진주시 도동로215번길,13,4,4.82E+24,,경상남도 진주시 도동로215번길 13-4,660997,52771,,1,,128.1206697,35.18924093
MA010120220810313658,블루메리플라워,,G2,소매,G219,식물 소매,G21901,꽃집,G47851,화초 및 식물 소매업,48,경상남도,48129,창원시 진해구,48129650,웅동2동,4812916400,용원동,4.81E+18,1,대지,1252,9,경상남도 창원시 진해구 용원동 1252-9,4.81E+11,경상남도 창원시 진해구 용원로90번길,6,,4.81E+24,,경상남도 창원시 진해구 용원로90번길 6,645510,51610,,2,,128.8186708,35.09822754
MA010120220810317685,호쉬아나플라워,,G2,소매,G219,식물 소매,G21901,꽃집,G47851,화초 및 식물 소매업,48,경상남도,48250,김해시,48250620,장유2동,4825012900,대청동,4.83E+18,1,대지,320,2,경상남도 김해시 대청동 320-2,4.83E+11,경상남도 김해시 반룡로,13,,4.83E+24,갑오마을대우푸르지오8단지,경상남도 김해시 반룡로 13,621280,51003,,1,,128.799332,35.18714126
MA010120220810297932,진교다육,,G2,소매,G219,식물 소매,G21901,꽃집,G47851,화초 및 식물 소매업,48,경상남도,48850,하동군,48850350,고전면,4885035021,고전면,4.89E+18,1,대지,543,7,경상남도 하동군 고전면 범아리 543-7,4.89E+11,경상남도 하동군 고전면 아정길,56,,4.89E+24,,경상남도 하동군 고전면 아정길 56,667863,52340,,,,127.8135598,35.02572153
MA010120220810287681,수플라워,,G2,소매,G219,식물 소매,G21901,꽃집,G47851,화초 및 식물 소매업,48,경상남도,48820,고성군,48820250,고성읍,4882025023,고성읍,4.88E+18,1,대지,543,2,경상남도 고성군 고성읍 수남리 543-2,4.88E+11,경상남도 고성군 고성읍 남포로79번길,27,,4.88E+24,,경상남도 고성군 고성읍 남포로79번길 27,638806,52935,,,,128.3189001,34.96971779
MA010120220810406904,법인화인,,G2,소매,G219,식물 소매,G21901,꽃집,G47851,화초 및 식물 소매업,48,경상남도,48860,산청군,48860360,시천면,4886036023,시천면,4.89E+18,1,대지,420,13,경상남도 산청군 시천면 내대리 420-13,4.89E+11,경상남도 산청군 시천면 삼신봉로,447,,4.89E+24,,경상남도 산청군 시천면 삼신봉로 447,666932,52237,,,,127.7426529,35.26471478
MA010120220810420193,냥냥펀치,,G2,소매,G219,식물 소매,G21901,꽃집,G47851,화초 및 식물 소매업,48,경상남도,48330,양산시,48330310,동면,4833031022,동면,4.83E+18,1,대지,544,4,경상남도 양산시 동면 법기리 544-4,4.83E+11,경상남도 양산시 동면 법기로,132,,4.83E+24,냥냥펀치,경상남도 양산시 동면 법기로 132,626822,50646,,1,,129.114402,35.34448788
MA010120220810384899,더만개패키징,,G2,소매,G219,식물 소매,G21901,꽃집,G47851,화초 및 식물 소매업,48,경상남도,48170,진주시,48170565,중앙동,4817011500,봉래동,4.82E+18,1,대지,244,1,경상남도 진주시 봉래동 244-1,4.82E+11,경상남도 진주시 의곡길16번길,1,,4.82E+24,,경상남도 진주시 의곡길16번길 1,660220,52751,,1,,128.0825011,35.19874535
MA010120220810397621,공화,,G2,소매,G219,식물 소매,G21901,꽃집,G47851,화초 및 식물 소매업,48,경상남도,48310,거제시,48310580,고현동,4831010900,고현동,4.83E+18,1,대지,224,2,경상남도 거제시 고현동 224-2,4.83E+11,경상남도 거제시 동문천로,69,,4.83E+24,명성빌딩,경상남도 거제시 동문천로 69,656932,53255,,1,,128.6275325,34.88389454
MA010120220810436606,다정플라워샵,,G2,소매,G219,식물 소매,G21901,꽃집,G47851,화초 및 식물 소매업,48,경상남도,48250,김해시,48250610,장유1동,4825012500,부곡동,4.83E+18,1,대지,1161,12,경상남도 김해시 부곡동 1161-12,4.83E+11,경상남도 김해시 능동로167번길,1,,4.83E+24,장유넥스코아,경상남도 김해시 능동로167번길 1,621250,50981,,,,128.8089749,35.20319218
MA010120220810377593,영남정원수;분재,,G2,소매,G219,식물 소매,G21901,꽃집,G47851,화초 및 식물 소매업,48,경상남도,48270,밀양시,48270310,부북면,4827031026,부북면,4.83E+18,1,대지,82,5,경상남도 밀양시 부북면 오례리 82-5,4.83E+11,경상남도 밀양시 부북면 오례2길,18,8,4.83E+24,,경상남도 밀양시 부북면 오례2길 18-8,627852,50402,,,,128.7220103,35.50086365
MA010120220810494546,꽃피움,,G2,소매,G219,식물 소매,G21901,꽃집,G47851,화초 및 식물 소매업,48,경상남도,48125,창원시 마산합포구,48125530,월영동,4812515800,해운동,4.81E+18,1,대지,16,8,경상남도 창원시 마산합포구 해운동 16-8,4.81E+11,경상남도 창원시 마산합포구 월영남로,10,1,4.81E+24,,경상남도 창원시 마산합포구 월영남로 10-1,631871,51769,,,,128.5582369,35.17788479
MA010120220810457981,하남꽃집,,G2,소매,G219,식물 소매,G21901,꽃집,G47851,화초 및 식물 소매업,48,경상남도,48270,밀양시,48270253,하남읍,4827025321,하남읍,4.83E+18,1,대지,814,17,경상남도 밀양시 하남읍 수산리 814-17,4.83E+11,경상남도 밀양시 하남읍 수산중앙로,26,,4.83E+24,,경상남도 밀양시 하남읍 수산중앙로 26,627894,50459,,,,128.7082121,35.37470459
MA010120220810458027,언제나;꽃봄,,G2,소매,G219,식물 소매,G21901,꽃집,G47851,화초 및 식물 소매업,48,경상남도,48330,양산시,48330570,덕계동,4833012000,덕계동,4.83E+18,1,대지,755,6,경상남도 양산시 덕계동 755-6,4.83E+11,경상남도 양산시 덕계5길,7,21,4.83E+24,,경상남도 양산시 덕계5길 7-21,626842,50554,,,,129.1480749,35.37176554
MA010120220810581536,사과나무플라워,,G2,소매,G219,식물 소매,G21901,꽃집,G47851,화초 및 식물 소매업,48,경상남도,48123,창원시 성산구,48123560,성주동,4812310600,남산동,4.81E+18,1,대지,601,4,경상남도 창원시 성산구 남산동 601-4,4.81E+11,경상남도 창원시 성산구 정동로162번길,57,,4.81E+24,한양,경상남도 창원시 성산구 정동로162번길 57,642120,51536,,1,,128.6968472,35.20204012
MA010120220810566318,산아래휴아로마,,G2,소매,G219,식물 소매,G21901,꽃집,G47851,화초 및 식물 소매업,48,경상남도,48270,밀양시,48270350,단장면,4827035027,단장면,4.83E+18,1,대지,1059,,경상남도 밀양시 단장면 국전리 1059,4.83E+11,경상남도 밀양시 단장면 국전로,496,5,4.83E+24,,경상남도 밀양시 단장면 국전로 496-5,627823,50417,,,,128.899355,35.47925922
MA010120220810554551,새미향플라워,,G2,소매,G219,식물 소매,G21901,꽃집,G47851,화초 및 식물 소매업,48,경상남도,48330,양산시,48330330,상북면,4833033021,상북면,4.83E+18,1,대지,223,2,경상남도 양산시 상북면 석계리 223-2,4.83E+11,경상남도 양산시 상북면 상북중앙로,319,,4.83E+24,,경상남도 양산시 상북면 상북중앙로 319,626854,50559,,1,,129.0591954,35.41218831
MA010120220810673688,금빛다육,,G2,소매,G219,식물 소매,G21901,꽃집,G47851,화초 및 식물 소매업,48,경상남도,48730,함안군,48730250,가야읍,4873025021,가야읍,4.87E+18,1,대지,470,9,경상남도 함안군 가야읍 말산리 470-9,4.87E+11,경상남도 함안군 가야읍 가야7길,11,,4.87E+24,가야시장,경상남도 함안군 가야읍 가야7길 11,637804,52045,,1,,128.4061054,35.27701954
MA010120220810760002,에이치플라워,,G2,소매,G219,식물 소매,G21901,꽃집,G47851,화초 및 식물 소매업,48,경상남도,48850,하동군,48850360,금남면,4885036022,금남면,4.89E+18,1,대지,633,1,경상남도 하동군 금남면 중평리 633-1,4.89E+11,경상남도 하동군 금남면 경충로,440,,4.89E+24,,경상남도 하동군 금남면 경충로 440,667924,52351,,,,127.8945176,34.97786719
MA010120220810859972,예쁜꽃나라,,G2,소매,G219,식물 소매,G21901,꽃집,G47851,화초 및 식물 소매업,48,경상남도,48125,창원시 마산합포구,48125565,반월중앙동,4812514900,중앙동3가,4.81E+18,1,대지,4,298,경상남도 창원시 마산합포구 중앙동3가 4-298,4.81E+11,경상남도 창원시 마산합포구 315대로,218,10,4.81E+24,,경상남도 창원시 마산합포구 315대로 218-10,631870,51736,,2,,128.5675744,35.19769072
MA010120220810863467,네잎클로버,,G2,소매,G219,식물 소매,G21901,꽃집,G47851,화초 및 식물 소매업,48,경상남도,48125,창원시 마산합포구,48125565,반월중앙동,4812514700,중앙동1가,4.81E+18,1,대지,4,1,경상남도 창원시 마산합포구 중앙동1가 4-1,4.81E+11,경상남도 창원시 마산합포구 반월북1길,26,,4.81E+24,우성빌라,경상남도 창원시 마산합포구 반월북1길 26,631421,51761,,1,,128.562639,35.19051756
MA010120220810872543,오브,,G2,소매,G219,식물 소매,G21901,꽃집,G47851,화초 및 식물 소매업,48,경상남도,48125,창원시 마산합포구,48125530,월영동,4812515800,해운동,4.81E+18,1,대지,17,2,경상남도 창원시 마산합포구 해운동 17-2,4.81E+11,경상남도 창원시 마산합포구 월영남로,7,,4.81E+24,보은빌딩,경상남도 창원시 마산합포구 월영남로 7,631871,51752,,,,128.5587572,35.17811242
MA010120220810872757,돌담,,G2,소매,G219,식물 소매,G21901,꽃집,G47851,화초 및 식물 소매업,48,경상남도,48127,창원시 마산회원구,48127250,내서읍,4812725022,내서읍,4.81E+18,1,대지,494,,경상남도 창원시 마산회원구 내서읍 평성리 494,4.81E+11,경상남도 창원시 마산회원구 내서읍 호원로,407,1,4.81E+24,,경상남도 창원시 마산회원구 내서읍 호원로 407-1,630856,51213,,,,128.5295799,35.26759926
MA010120220810860717,금평수목원,,G2,소매,G219,식물 소매,G21901,꽃집,G47851,화초 및 식물 소매업,48,경상남도,48740,창녕군,48740420,부곡면,4874042030,부곡면,4.87E+18,1,대지,273,3,경상남도 창녕군 부곡면 수다리 273-3,4.87E+11,경상남도 창녕군 부곡면 구산학포로,636,,4.87E+24,,경상남도 창녕군 부곡면 구산학포로 636,635892,50366,,,,128.6481037,35.42453786
MA010120220810867634,플라워마리포사,,G2,소매,G219,식물 소매,G21901,꽃집,G47851,화초 및 식물 소매업,48,경상남도,48125,창원시 마산합포구,48125630,오동동,4812510400,남성동,4.81E+18,1,대지,11,,경상남도 창원시 마산합포구 남성동 11,4.81E+11,경상남도 창원시 마산합포구 불종거리로,2,1,4.81E+24,건일빌딩,경상남도 창원시 마산합포구 불종거리로 2-1,631859,51728,,1,,128.5770444,35.20480468
MA010120220810853950,보라미꽃조경,,G2,소매,G219,식물 소매,G21901,꽃집,G47851,화초 및 식물 소매업,48,경상남도,48730,함안군,48730250,가야읍,4873025029,가야읍,4.87E+18,1,대지,60,1,경상남도 함안군 가야읍 가야리 60-1,4.87E+11,경상남도 함안군 가야읍 함마대로,1445,,4.87E+24,,경상남도 함안군 가야읍 함마대로 1445,637801,52043,,,,128.39409,35.27300384
MA010120220810852669,하나플라워,,G2,소매,G219,식물 소매,G21901,꽃집,G47851,화초 및 식물 소매업,48,경상남도,48125,창원시 마산합포구,48125565,반월중앙동,4812514900,중앙동3가,4.81E+18,1,대지,4,1,경상남도 창원시 마산합포구 중앙동3가 4-1,4.81E+11,경상남도 창원시 마산합포구 서성로,3,,4.81E+24,신세계마트,경상남도 창원시 마산합포구 서성로 3,631870,51735,,,,128.5699497,35.19788525
MA010120220810897771,플라워피아,,G2,소매,G219,식물 소매,G21901,꽃집,G47851,화초 및 식물 소매업,48,경상남도,48125,창원시 마산합포구,48125640,합포동,4812511900,상남동,4.81E+18,1,대지,176,21,경상남도 창원시 마산합포구 상남동 176-21,4.81E+11,경상남도 창원시 마산합포구 315대로,430,,4.81E+24,,경상남도 창원시 마산합포구 315대로 430,631858,51335,,,,128.5762756,35.21274558
MA010120220810833776,좋은일생기는꽃집,,G2,소매,G219,식물 소매,G21901,꽃집,G47851,화초 및 식물 소매업,48,경상남도,48125,창원시 마산합포구,48125640,합포동,4812511800,산호동,4.81E+18,1,대지,324,17,경상남도 창원시 마산합포구 산호동 324-17,4.81E+11,경상남도 창원시 마산합포구 합포로,132,,4.81E+24,,경상남도 창원시 마산합포구 합포로 132,631855,51723,,,,128.5835954,35.20967596
MA010120220810837234,들꽃집,,G2,소매,G219,식물 소매,G21901,꽃집,G47851,화초 및 식물 소매업,48,경상남도,48125,창원시 마산합포구,48125650,산호동,4812511800,산호동,4.81E+18,1,대지,26,22,경상남도 창원시 마산합포구 산호동 26-22,4.81E+11,경상남도 창원시 마산합포구 산호시장길,52,,4.81E+24,,경상남도 창원시 마산합포구 산호시장길 52,631852,51328,,,,128.5828197,35.21949154
MA010120220810838770,번창꽃유통,,G2,소매,G219,식물 소매,G21901,꽃집,G47851,화초 및 식물 소매업,48,경상남도,48125,창원시 마산합포구,48125650,산호동,4812511800,산호동,4.81E+18,1,대지,39,9,경상남도 창원시 마산합포구 산호동 39-9,4.81E+11,경상남도 창원시 마산합포구 산호남로,36,,4.81E+24,,경상남도 창원시 마산합포구 산호남로 36,631853,51332,,,,128.5833902,35.2160684
MA010120220810831737,호박꽃집,,G2,소매,G219,식물 소매,G21901,꽃집,G47851,화초 및 식물 소매업,48,경상남도,48123,창원시 성산구,48123520,중앙동,4812312500,중앙동,4.81E+18,1,대지,100,1,경상남도 창원시 성산구 중앙동 100-1,4.81E+11,경상남도 창원시 성산구 중앙대로61번길,3,,4.81E+24,중앙상가,경상남도 창원시 성산구 중앙대로61번길 3,642845,51522,,1,,128.6765263,35.22086138
MA010120220810949549,래예플라워디자인,,G2,소매,G219,식물 소매,G21901,꽃집,G47851,화초 및 식물 소매업,48,경상남도,48250,김해시,48250630,장유3동,4825013000,관동동,4.83E+18,1,대지,1102,5,경상남도 김해시 관동동 1102-5,4.83E+11,경상남도 김해시 율하카페길,81,18,4.83E+24,래예플라워디자인,경상남도 김해시 율하카페길 81-18,621300,51014,,1,,128.8135067,35.17689037
MA010120220810956104,한울꽃조경,,G2,소매,G219,식물 소매,G21901,꽃집,G47851,화초 및 식물 소매업,48,경상남도,48121,창원시 의창구,48121540,봉림동,4812112500,사림동,4.81E+18,1,대지,2,2,경상남도 창원시 의창구 사림동 2-2,4.81E+11,경상남도 창원시 의창구 용지로275번길,9,,4.81E+24,,경상남도 창원시 의창구 용지로275번길 9,641824,51153,,1,,128.6879006,35.23819591
MA010120220810953239,꽃나무핸즈,,G2,소매,G219,식물 소매,G21901,꽃집,G47851,화초 및 식물 소매업,48,경상남도,48121,창원시 의창구,48121540,봉림동,4812112700,봉곡동,4.81E+18,1,대지,42,15,경상남도 창원시 의창구 봉곡동 42-15,4.81E+11,경상남도 창원시 의창구 지귀로24번길,31,,4.81E+24,,경상남도 창원시 의창구 지귀로24번길 31,641821,51180,,,,128.652787,35.2438266
MA010120220810953465,꽃in뜨라레,,G2,소매,G219,식물 소매,G21901,꽃집,G47851,화초 및 식물 소매업,48,경상남도,48121,창원시 의창구,48121540,봉림동,4812112700,봉곡동,4.81E+18,1,대지,176,14,경상남도 창원시 의창구 봉곡동 176-14,4.81E+11,경상남도 창원시 의창구 사림로45번길,9,,4.81E+24,반,경상남도 창원시 의창구 사림로45번길 9,641823,51144,,,,128.6778472,35.24820406
MA010120220810953587,꿈꾸는다락방,,G2,소매,G219,식물 소매,G21901,꽃집,G47851,화초 및 식물 소매업,48,경상남도,48129,창원시 진해구,48129580,석동,4812914100,이동,4.81E+18,1,대지,675,1,경상남도 창원시 진해구 이동 675-1,4.81E+11,경상남도 창원시 진해구 해원로,32,,4.81E+24,,경상남도 창원시 진해구 해원로 32,645807,51659,,1,,128.6970609,35.15476799
MA010120220810942821,서득조경,,G2,소매,G219,식물 소매,G21901,꽃집,G47851,화초 및 식물 소매업,48,경상남도,48121,창원시 의창구,48121510,의창동,4812110600,동정동,4.81E+18,1,대지,525,1,경상남도 창원시 의창구 동정동 525-1,4.81E+11,경상남도 창원시 의창구 의창대로,125,,4.81E+24,하우스,경상남도 창원시 의창구 의창대로 125,641490,51191,,,,128.6115459,35.26150621
MA010120220810938011,포시즌플라워,,G2,소매,G219,식물 소매,G21901,꽃집,G47851,화초 및 식물 소매업,48,경상남도,48123,창원시 성산구,48123520,중앙동,4812312500,중앙동,4.81E+18,1,대지,2,1,경상남도 창원시 성산구 중앙동 2-1,4.81E+11,경상남도 창원시 성산구 외동반림로,142,,4.81E+24,,경상남도 창원시 성산구 외동반림로 142,642843,51512,,,,128.6729305,35.23133825
MA010120220810923069,깔롱,,G2,소매,G219,식물 소매,G21901,꽃집,G47851,화초 및 식물 소매업,48,경상남도,48129,창원시 진해구,48129590,이동,4812914100,이동,4.81E+18,1,대지,377,1,경상남도 창원시 진해구 이동 377-1,4.81E+11,경상남도 창원시 진해구 충장로,405,,4.81E+24,,경상남도 창원시 진해구 충장로 405,645807,51664,,,,128.6957241,35.15221821
MA010120220810938174,무궁화꽃화원,,G2,소매,G219,식물 소매,G21901,꽃집,G47851,화초 및 식물 소매업,48,경상남도,48123,창원시 성산구,48123515,용지동,4812313600,신월동,4.81E+18,1,대지,45,4,경상남도 창원시 성산구 신월동 45-4,4.81E+11,경상남도 창원시 성산구 상남로,204,,4.81E+24,,경상남도 창원시 성산구 상남로 204,641837,51443,,,,128.6885307,35.22990494
MA010120220810936899,대홍농장,,G2,소매,G219,식물 소매,G21901,꽃집,G47851,화초 및 식물 소매업,48,경상남도,48121,창원시 의창구,48121250,동읍,4812125043,동읍,4.81E+18,1,대지,311,39,경상남도 창원시 의창구 동읍 산남리 311-39,4.81E+11,경상남도 창원시 의창구 동읍 죽동길25번길,72,1,4.81E+24,,경상남도 창원시 의창구 동읍 죽동길25번길 72-1,641861,51125,,,,128.6766367,35.33709822
MA010120220810931548,드림플라워&언어치료,,G2,소매,G219,식물 소매,G21901,꽃집,G47851,화초 및 식물 소매업,48,경상남도,48170,진주시,48170595,상봉동,4817011400,상봉동,4.82E+18,1,대지,1093,5,경상남도 진주시 상봉동 1093-5,4.82E+11,경상남도 진주시 창렬로114번길,15,,4.82E+24,,경상남도 진주시 창렬로114번길 15,660901,52661,,,,128.0703528,35.19675332
MA010120220810918562,지혜야채，지혜꽃집,,G2,소매,G219,식물 소매,G21901,꽃집,G47215,채소; 과실 및 뿌리작물 소매업,48,경상남도,48129,창원시 진해구,48129530,충무동,4812913100,화천동,4.81E+18,1,대지,60,6,경상남도 창원시 진해구 화천동 60-6,4.81E+11,경상남도 창원시 진해구 벚꽃로60번길,19,6,4.81E+24,중앙상가,경상남도 창원시 진해구 벚꽃로60번길 19-6,645230,51680,,,,128.6652872,35.15126159
MA010120220811070473,그린화원,,G2,소매,G219,식물 소매,G21901,꽃집,G47851,화초 및 식물 소매업,48,경상남도,48870,함양군,48870250,함양읍,4887025027,함양읍,4.89E+18,1,대지,1739,,경상남도 함양군 함양읍 백천리 1739,4.89E+11,경상남도 함양군 함양읍 고운로,284,,4.89E+24,,경상남도 함양군 함양읍 고운로 284,676804,50023,,,,127.751445,35.52341441
MA010120220811073232,블루밍,,G2,소매,G219,식물 소매,G21901,꽃집,G47851,화초 및 식물 소매업,48,경상남도,48870,함양군,48870250,함양읍,4887025021,함양읍,4.89E+18,1,대지,262,1,경상남도 함양군 함양읍 운림리 262-1,4.89E+11,경상남도 함양군 함양읍 고운로,11,,4.89E+24,,경상남도 함양군 함양읍 고운로 11,676806,50035,,1,,127.7228338,35.51947942
MA010120220811064837,대명꽃도매,,G2,소매,G219,식물 소매,G21901,꽃집,G47851,화초 및 식물 소매업,48,경상남도,48330,양산시,48330253,물금읍,4833025322,물금읍,4.83E+18,1,대지,663,,경상남도 양산시 물금읍 증산리 663,4.83E+11,경상남도 양산시 물금읍 증산2길,33,8,4.83E+24,,경상남도 양산시 물금읍 증산2길 33-8,626812,50614,,,,128.9987003,35.30340015
MA010120220811065755,대림조경자재,,G2,소매,G219,식물 소매,G21901,꽃집,G47851,화초 및 식물 소매업,48,경상남도,48870,함양군,48870250,함양읍,4887025021,함양읍,4.89E+18,1,대지,315,,경상남도 함양군 함양읍 운림리 315,4.89E+11,경상남도 함양군 함양읍 필봉산길,30,,4.89E+24,,경상남도 함양군 함양읍 필봉산길 30,676806,50035,,,,127.720139,35.52264102
MA010120220811102330,회화종묘사,,G2,소매,G219,식물 소매,G21901,꽃집,G47851,화초 및 식물 소매업,48,경상남도,48820,고성군,48820400,회화면,4882040021,회화면,4.88E+18,1,대지,344,22,경상남도 고성군 회화면 배둔리 344-22,4.88E+11,경상남도 고성군 회화면 배둔중앙6번길,23,,4.88E+24,,경상남도 고성군 회화면 배둔중앙6번길 23,638813,52915,,,,128.3727326,35.0592233
MA010120220811131364,로세라블룸플라워,,G2,소매,G219,식물 소매,G21901,꽃집,G47851,화초 및 식물 소매업,48,경상남도,48330,양산시,48330310,동면,4833031027,동면,4.83E+18,1,대지,1441,9,경상남도 양산시 동면 금산리 1441-9,4.83E+11,경상남도 양산시 동면 금오6길,19,10,4.83E+24,,경상남도 양산시 동면 금오6길 19-10,626821,50639,,1,,129.0225961,35.31168981
MA010120220811148517,진사화훼,,G2,소매,G219,식물 소매,G21901,꽃집,G47851,화초 및 식물 소매업,48,경상남도,48170,진주시,48170678,하대동,4817012000,하대동,4.82E+18,1,대지,307,6,경상남도 진주시 하대동 307-6,4.82E+11,경상남도 진주시 하대로129번길,7,,4.82E+24,,경상남도 진주시 하대로129번길 7,660993,52763,,,,128.1256317,35.19398079
MA010120220811150818,영성실크,,G2,소매,G219,식물 소매,G21901,꽃집,G47851,화초 및 식물 소매업,48,경상남도,48860,산청군,48860380,신안면,4886038021,신안면,4.89E+18,1,대지,693,10,경상남도 산청군 신안면 하정리 693-10,4.89E+11,경상남도 산청군 신안면 원지로122번길,42,,4.89E+24,,경상남도 산청군 신안면 원지로122번길 42,666962,52249,,,,127.9819346,35.29461793
MA010120220811091218,플라워피다,,G2,소매,G219,식물 소매,G21901,꽃집,G47851,화초 및 식물 소매업,48,경상남도,48123,창원시 성산구,48123510,반송동,4812312600,반림동,4.81E+18,1,대지,17,9,경상남도 창원시 성산구 반림동 17-9,4.81E+11,경상남도 창원시 성산구 반송로,148,9,4.81E+24,반송아이필프라자,경상남도 창원시 성산구 반송로 148-9,642818,51426,,1,,128.6712903,35.23544344
MA010120220811093820,수림꽃집,,G2,소매,G219,식물 소매,G21901,꽃집,G47851,화초 및 식물 소매업,48,경상남도,48820,고성군,48820250,고성읍,4882025022,고성읍,4.88E+18,1,대지,17,6,경상남도 고성군 고성읍 서외리 17-6,4.88E+11,경상남도 고성군 고성읍 중앙로25번길,46,1,4.88E+24,,경상남도 고성군 고성읍 중앙로25번길 46-1,638808,52942,,,,128.3236804,34.97623628
MA010120220811206840,청화농업법인,,G2,소매,G219,식물 소매,G21901,꽃집,G47851,화초 및 식물 소매업,48,경상남도,48170,진주시,48170420,집현면,4817042029,집현면,4.82E+18,1,대지,112,2,경상남도 진주시 집현면 신당리 112-2,4.82E+11,경상남도 진주시 집현면 남강로,1829,,4.82E+24,,경상남도 진주시 집현면 남강로 1829,660933,52638,,,,128.1252004,35.22399787
MA010120220811194185,디오플라워,,G2,소매,G219,식물 소매,G21901,꽃집,G47851,화초 및 식물 소매업,48,경상남도,48250,김해시,48250580,활천동,4825011700,삼정동,4.83E+18,1,대지,640,13,경상남도 김해시 삼정동 640-13,4.83E+11,경상남도 김해시 인제로51번길,33,,4.83E+24,동서그랜저빌라,경상남도 김해시 인제로51번길 33,621913,50929,,,,128.9011714,35.23288812
MA010120220811169385,꽃집,,G2,소매,G219,식물 소매,G21901,꽃집,G47851,화초 및 식물 소매업,48,경상남도,48240,사천시,48240250,사천읍,4824025022,사천읍,4.82E+18,1,대지,202,16,경상남도 사천시 사천읍 정의리 202-16,4.82E+11,경상남도 사천시 사천읍 수양로,77,11,4.82E+24,,경상남도 사천시 사천읍 수양로 77-11,664807,52517,,,,128.0913788,35.08656114
MA010120220811171824,아루나꽃자재,,G2,소매,G219,식물 소매,G21901,꽃집,G47851,화초 및 식물 소매업,48,경상남도,48170,진주시,48170555,성북동,4817011300,봉곡동,4.82E+18,1,대지,22,7,경상남도 진주시 봉곡동 22-7,4.82E+11,경상남도 진주시 진주성로,55,,4.82E+24,,경상남도 진주시 진주성로 55,660040,52681,,,,128.0768341,35.19449668
MA010120220811181621,케이즈플로라,,G2,소매,G219,식물 소매,G21901,꽃집,G47851,화초 및 식물 소매업,48,경상남도,48170,진주시,48170740,가호동,4817013200,호탄동,4.82E+18,1,대지,976,1,경상남도 진주시 호탄동 976-1,4.82E+11,경상남도 진주시 가호로,31,,4.82E+24,동쪽상가,경상남도 진주시 가호로 31,660310,52817,,1,,128.1097714,35.16367228
MA010120220811153337,양지꽃집,,G2,소매,G219,식물 소매,G21901,꽃집,C33932,전시용 모형 제조업,48,경상남도,48240,사천시,48240350,곤양면,4824035030,곤양면,4.82E+18,1,대지,94,,경상남도 사천시 곤양면 검정리 94,4.82E+11,경상남도 사천시 곤양면 흥신로,48,,4.82E+24,,경상남도 사천시 곤양면 흥신로 48,664911,52506,,,,128.0234422,35.0807362
MA010120220811161259,백합꽃집,,G2,소매,G219,식물 소매,G21901,꽃집,G47851,화초 및 식물 소매업,48,경상남도,48170,진주시,48170720,이현동,4817012700,이현동,4.82E+18,1,대지,9,4,경상남도 진주시 이현동 9-4,4.82E+11,경상남도 진주시 서장대로,227,,4.82E+24,,경상남도 진주시 서장대로 227,660982,52668,,,,128.0581879,35.19090263
MA010120220811163230,재화꽃화원,,G2,소매,G219,식물 소매,G21901,꽃집,G47851,화초 및 식물 소매업,48,경상남도,48170,진주시,48170565,중앙동,4817011600,수정동,4.82E+18,1,대지,18,27,경상남도 진주시 수정동 18-27,4.82E+11,경상남도 진주시 향교로,17,,4.82E+24,,경상남도 진주시 향교로 17,660180,52751,,,,128.0845101,35.19788916
MA010120220811280029,한길화원,,G2,소매,G219,식물 소매,G21901,꽃집,G47851,화초 및 식물 소매업,48,경상남도,48250,김해시,48250520,회현동,4825010400,봉황동,4.83E+18,1,대지,26,7,경상남도 김해시 봉황동 26-7,4.83E+11,경상남도 김해시 김해대로2315번길,12,,4.83E+24,,경상남도 김해시 김해대로2315번길 12,621040,50926,,,,128.8799642,35.22726263
MA010120220811293000,꾸이종묘,코리아,G2,소매,G219,식물 소매,G21901,꽃집,G47851,화초 및 식물 소매업,48,경상남도,48250,김해시,48250550,북부동,4825010700,삼계동,4.83E+18,1,대지,1506,10,경상남도 김해시 삼계동 1506-10,4.83E+11,경상남도 김해시 가야로,202,,4.83E+24,태평포시즌빌딩,경상남도 김해시 가야로 202,621070,50902,,,,128.8718334,35.25960604
MA010120220811252312,중앙빌딩,,G2,소매,G219,식물 소매,G21901,꽃집,G47851,화초 및 식물 소매업,48,경상남도,48270,밀양시,48270520,내이동,4827010200,내이동,4.83E+18,1,대지,768,1,경상남도 밀양시 내이동 768-1,4.83E+11,경상남도 밀양시 중앙로,387,6,4.83E+24,,경상남도 밀양시 중앙로 387-6,627803,50427,,,,128.7503672,35.49586851
MA010120220811255211,금송조경원,,G2,소매,G219,식물 소매,G21901,꽃집,G47851,화초 및 식물 소매업,48,경상남도,48250,김해시,48250565,칠산서부동,4825011100,풍유동,4.83E+18,1,대지,80,10,경상남도 김해시 풍유동 80-10,4.83E+11,경상남도 김해시 전하로,28,,4.83E+24,비닐하우스,경상남도 김해시 전하로 28,621130,50965,,,,128.8513367,35.22070173
MA010120220811252661,선경꽃화분，김해선경냉난방에어컨,,G2,소매,G219,식물 소매,G21901,꽃집,G47851,화초 및 식물 소매업,48,경상남도,48250,김해시,48250550,북부동,4825010600,구산동,4.83E+18,1,대지,433,,경상남도 김해시 구산동 433,4.83E+11,경상남도 김해시 가야로,305,,4.83E+24,,경상남도 김해시 가야로 305,621901,50832,,,,128.8757404,35.25083108
MA010120220811272237,건명꽃조경,,G2,소매,G219,식물 소매,G21901,꽃집,G47851,화초 및 식물 소매업,48,경상남도,48270,밀양시,48270520,내이동,4827010200,내이동,4.83E+18,1,대지,950,5,경상남도 밀양시 내이동 950-5,4.83E+11,경상남도 밀양시 백민로,6,2,4.83E+24,,경상남도 밀양시 백민로 6-2,627803,50427,,,,128.7483446,35.49305014
MA010120220811238563,들꽃마을애드,,G2,소매,G219,식물 소매,G21901,꽃집,G47851,화초 및 식물 소매업,48,경상남도,48250,김해시,48250565,칠산서부동,4825011100,풍유동,4.83E+18,1,대지,87,1,경상남도 김해시 풍유동 87-1,4.83E+11,경상남도 김해시 전하로,6,1,4.83E+24,,경상남도 김해시 전하로 6-1,621130,50965,,,,128.8488036,35.22086662
MA010120220811237462,천수조경,,G2,소매,G219,식물 소매,G21901,꽃집,G47851,화초 및 식물 소매업,48,경상남도,48270,밀양시,48270360,상남면,4827036022,상남면,4.83E+18,1,대지,1437,4,경상남도 밀양시 상남면 예림리 1437-4,4.83E+11,경상남도 밀양시 상남면 당촌2길,14,11,4.83E+24,,경상남도 밀양시 상남면 당촌2길 14-11,627914,50451,,,,128.7551612,35.46396943
MA010120220811233344,풍란과석곡,,G2,소매,G219,식물 소매,G21901,꽃집,G47851,화초 및 식물 소매업,48,경상남도,48270,밀양시,48270510,내일동,4827010100,내일동,4.83E+18,1,대지,604,20,경상남도 밀양시 내일동 604-20,4.83E+11,경상남도 밀양시 해천길,43,1,4.83E+24,,경상남도 밀양시 해천길 43-1,627140,50426,,,,128.7513184,35.49197066
MA010120220811367100,언덕정원관광농원,,G2,소매,G219,식물 소매,G21901,꽃집,G47851,화초 및 식물 소매업,48,경상남도,48220,통영시,48220330,도산면,4822033027,도산면,4.82E+18,1,대지,681,3,경상남도 통영시 도산면 수월리 681-3,4.82E+11,경상남도 통영시 도산면 도산일주로,1294,36,4.82E+24,외,경상남도 통영시 도산면 도산일주로 1294-36,650814,53003,,,,128.3329692,34.87968553
MA010120220811988978,미미아뜰리에,,G2,소매,G219,식물 소매,G21901,꽃집,G47851,화초 및 식물 소매업,48,경상남도,48123,창원시 성산구,48123540,사파동,4812313000,사파동,4.81E+18,1,대지,112,14,경상남도 창원시 성산구 사파동 112-14,4.81E+11,경상남도 창원시 성산구 신사로,127,1,4.81E+24,,경상남도 창원시 성산구 신사로 127-1,642827,51448,,,,128.6975642,35.22065825
MA010120220811961323,악마의꽃집,,G2,소매,G219,식물 소매,G21901,꽃집,G47851,화초 및 식물 소매업,48,경상남도,48123,창원시 성산구,48123530,상남동,4812312700,상남동,4.81E+18,1,대지,36,4,경상남도 창원시 성산구 상남동 36-4,4.81E+11,경상남도 창원시 성산구 마디미로73번길,20,,4.81E+24,백제빌딩,경상남도 창원시 성산구 마디미로73번길 20,642832,51503,,1,,128.6829666,35.21896055
MA010120220811980734,하치일의맛있는대한민국,,G2,소매,G219,식물 소매,G21901,꽃집,G47851,화초 및 식물 소매업,48,경상남도,48170,진주시,48170740,가호동,4817013100,가좌동,4.82E+18,1,대지,1432,5,경상남도 진주시 가좌동 1432-5,4.82E+11,경상남도 진주시 가좌길84번길,20,,4.82E+24,,경상남도 진주시 가좌길84번길 20,660300,52822,,,,128.1069754,35.15983127
MA010120220811937321,어썸플라워,,G2,소매,G219,식물 소매,G21901,꽃집,G47851,화초 및 식물 소매업,48,경상남도,48123,창원시 성산구,48123530,상남동,4812312700,상남동,4.81E+18,1,대지,105,12,경상남도 창원시 성산구 상남동 105-12,4.81E+11,경상남도 창원시 성산구 동산로55번길,12,1,4.81E+24,,경상남도 창원시 성산구 동산로55번길 12-1,642829,51502,,,,128.6854865,35.21548282
MA010120220811735596,상미이즈상미is,,G2,소매,G219,식물 소매,G21901,꽃집,G47851,화초 및 식물 소매업,48,경상남도,48310,거제시,48310580,고현동,4831010900,고현동,4.83E+18,1,대지,1013,8,경상남도 거제시 고현동 1013-8,4.83E+11,경상남도 거제시 중곡2로6길,26,,4.83E+24,,경상남도 거제시 중곡2로6길 26,656936,53249,,1,,128.6289987,34.89334728
MA010120220811687811,에끄플레르,,G2,소매,G219,식물 소매,G21901,꽃집,G47851,화초 및 식물 소매업,48,경상남도,48880,거창군,48880250,거창읍,4888025021,거창읍,4.89E+18,1,대지,790,3,경상남도 거창군 거창읍 상림리 790-3,4.89E+11,경상남도 거창군 거창읍 거열로5길,10,3,4.89E+24,,경상남도 거창군 거창읍 거열로5길 10-3,670807,50130,,,,127.9060696,35.6892286
MA010120220811727526,산들꽃집,,G2,소매,G219,식물 소매,G21901,꽃집,G47851,화초 및 식물 소매업,48,경상남도,48310,거제시,48310600,수양동,4831011300,양정동,4.83E+18,1,대지,962,2,경상남도 거제시 양정동 962-2,4.83E+11,경상남도 거제시 수양로,473,,4.83E+24,신현농협수양점,경상남도 거제시 수양로 473,656806,53236,,1,,128.6398031,34.89099386
MA010120220811729004,정민플라워앤케이크,,G2,소매,G219,식물 소매,G21901,꽃집,G47851,화초 및 식물 소매업,48,경상남도,48121,창원시 의창구,48121530,명곡동,4812110500,도계동,4.81E+18,1,대지,313,24,경상남도 창원시 의창구 도계동 313-24,4.81E+11,경상남도 창원시 의창구 하남천서길15번길,16,1,4.81E+24,,경상남도 창원시 의창구 하남천서길15번길 16-1,641809,51163,,1,,128.638146,35.2614283
MA010120220811757975,행복이다육,,G2,소매,G219,식물 소매,G21901,꽃집,G47851,화초 및 식물 소매업,48,경상남도,48310,거제시,48310360,사등면,4831036027,사등면,4.83E+18,1,대지,130,4,경상남도 거제시 사등면 덕호리 130-4,4.83E+11,경상남도 거제시 사등면 덕호신촌2길,24,3,4.83E+24,,경상남도 거제시 사등면 덕호신촌2길 24-3,656881,53274,,,,128.4794313,34.8816415
MA010120220811707682,천사다육,,G2,소매,G219,식물 소매,G21901,꽃집,G47851,화초 및 식물 소매업,48,경상남도,48870,함양군,48870330,유림면,4887033024,유림면,4.89E+18,1,대지,962,1,경상남도 함양군 유림면 화촌리 962-1,4.89E+11,경상남도 함양군 유림면 화촌길,54,3,4.89E+24,,경상남도 함양군 유림면 화촌길 54-3,676891,50051,,,,127.788346,35.48182812
MA010120220811897636,꽃길화원,,G2,소매,G219,식물 소매,G21901,꽃집,G47851,화초 및 식물 소매업,48,경상남도,48170,진주시,48170695,초장동,4817012200,초전동,4.82E+18,1,대지,1725,4,경상남도 진주시 초전동 1725-4,4.82E+11,경상남도 진주시 초전북로61번길,15,14,4.82E+24,,경상남도 진주시 초전북로61번길 15-14,660360,52731,,,,128.1124287,35.2096772
MA010120220811887524,로즈,,G2,소매,G219,식물 소매,G21901,꽃집,G47851,화초 및 식물 소매업,48,경상남도,48170,진주시,48170673,상대동,4817011900,상대동,4.82E+18,1,대지,272,8,경상남도 진주시 상대동 272-8,4.82E+11,경상남도 진주시 모덕로,112,,4.82E+24,,경상남도 진주시 모덕로 112,660806,52790,,1,,128.109777,35.18266262
MA010120220811807290,청원꽃식물원,,G2,소매,G219,식물 소매,G21901,꽃집,G47851,화초 및 식물 소매업,48,경상남도,48121,창원시 의창구,48121530,명곡동,4812112400,명서동,4.81E+18,1,대지,208,7,경상남도 창원시 의창구 명서동 208-7,4.81E+11,경상남도 창원시 의창구 창이대로81번길,6,,4.81E+24,,경상남도 창원시 의창구 창이대로81번길 6,641815,51388,,,,128.6480922,35.23982613
MA010120220811796880,금농원,,G2,소매,G219,식물 소매,G21901,꽃집,G47851,화초 및 식물 소매업,48,경상남도,48850,하동군,48850420,금성면,4885042023,금성면,4.89E+18,1,대지,177,,경상남도 하동군 금성면 고포리 177,4.89E+11,경상남도 하동군 금성면 용포마을안길,30,,4.89E+24,,경상남도 하동군 금성면 용포마을안길 30,667932,52353,,,,127.7823686,34.96633806
MA010120220811778631,속천동꽃집,,G2,소매,G219,식물 소매,G21901,꽃집,G47851,화초 및 식물 소매업,48,경상남도,48129,창원시 진해구,48129530,충무동,4812910700,태평동,4.81E+18,1,대지,103,19,경상남도 창원시 진해구 태평동 103-19,4.81E+11,경상남도 창원시 진해구 태평로,97,1,4.81E+24,,경상남도 창원시 진해구 태평로 97-1,645230,51684,,,,128.6698615,35.14474581
MA010120220811836285,스타꽃배달,,G2,소매,G219,식물 소매,G21901,꽃집,G47851,화초 및 식물 소매업,48,경상남도,48127,창원시 마산회원구,48127510,회원1동,4812710800,회원동,4.81E+18,1,대지,62,13,경상남도 창원시 마산회원구 회원동 62-13,4.81E+11,경상남도 창원시 마산회원구 315대로,479,,4.81E+24,,경상남도 창원시 마산회원구 315대로 479,630821,51297,,,,128.5749906,35.21728651
