상가업소번호,상호명,지점명,상권업종대분류코드,상권업종대분류명,상권업종중분류코드,상권업종중분류명,상권업종소분류코드,상권업종소분류명,표준산업분류코드,표준산업분류명,시도코드,시도명,시군구코드,시군구명,행정동코드,행정동명,법정동코드,법정동명,지번코드,대지구분코드,대지구분명,지번본번지,지번부번지,지번주소,도로명코드,도로명,건물본번지,건물부번지,건물관리번호,건물명,도로명주소,구우편번호,신우편번호,동정보,층정보,호정보,경도,위도
MA010120220800110388,원플라워,,G2,소매,G219,식물 소매,G21901,꽃집,G47851,화초 및 식물 소매업,50,제주특별자치도,50110,제주시,50110256,구좌읍,5011025626,구좌읍,5.01103E+18,1,대지,403,,제주특별자치도 제주시 구좌읍 월정리 403,5.01105E+11,제주특별자치도 제주시 구좌읍 월정1길,69,2,5.01103E+24,,제주특별자치도 제주시 구좌읍 월정1길 69-2,695975,63358,,,,126.7932732,33.55699353
MA010120220800115235,샤랄라제주,,G2,소매,G219,식물 소매,G21901,꽃집,G47851,화초 및 식물 소매업,50,제주특별자치도,50110,제주시,50110570,용담1동,5011010800,용담일동,5.01101E+18,1,대지,135,9,제주특별자치도 제주시 용담일동 135-9,5.01105E+11,제주특별자치도 제주시 서문로4길,13,2,5.01101E+24,,제주특별자치도 제주시 서문로4길 13-2,690819,63154,,,,126.5179035,33.51134646
MA010120220800150797,체리비로드,,G2,소매,G219,식물 소매,G21901,꽃집,G47851,화초 및 식물 소매업,50,제주특별자치도,50110,제주시,50110250,한림읍,5011025023,한림읍,5.01103E+18,1,대지,1720,1,제주특별자치도 제주시 한림읍 대림리 1720-1,5.01103E+11,제주특별자치도 제주시 한림읍 한수풀로,96,,5.01103E+24,,제주특별자치도 제주시 한림읍 한수풀로 96,695925,63026,,,,126.2726808,33.42022579
MA010120220800154345,메리엔젤,,G2,소매,G219,식물 소매,G21901,꽃집,G47851,화초 및 식물 소매업,50,제주특별자치도,50110,제주시,50110250,한림읍,5011025026,한림읍,5.01103E+18,1,대지,1565,4,제주특별자치도 제주시 한림읍 동명리 1565-4,5.01105E+11,제주특별자치도 제주시 한림읍 동명1길,31,,5.01103E+24,,제주특별자치도 제주시 한림읍 동명1길 31,695926,63013,,,,126.2657883,33.40498442
MA010120220800600278,그라티아,,G2,소매,G219,식물 소매,G21901,꽃집,G47851,화초 및 식물 소매업,50,제주특별자치도,50130,서귀포시,50130310,안덕면,5013031027,안덕면,5.01303E+18,1,대지,2092,2,제주특별자치도 서귀포시 안덕면 서광리 2092-2,5.01305E+11,제주특별자치도 서귀포시 안덕면 서광남로115번길,12,,5.01303E+24,,제주특별자치도 서귀포시 안덕면 서광남로115번길 12,699924,63521,,,,126.2989803,33.28334316
MA010120220800668100,꽃다비,,G2,소매,G219,식물 소매,G21901,꽃집,G47851,화초 및 식물 소매업,50,제주특별자치도,50110,제주시,50110630,아라동,5011013400,오등동,5.01101E+18,1,대지,1365,1,제주특별자치도 제주시 오등동 1365-1,5.01103E+11,제주특별자치도 제주시 아연로,428,,5.01101E+24,,제주특별자치도 제주시 아연로 428,690150,63240,,,,126.5266162,33.4747303
MA010120220800852574,해돋이플라워,,G2,소매,G219,식물 소매,G21901,꽃집,G47851,화초 및 식물 소매업,50,제주특별자치도,50110,제주시,50110600,화북동,5011011100,화북일동,5.01101E+18,1,대지,4144,6,제주특별자치도 제주시 화북일동 4144-6,5.01105E+11,제주특별자치도 제주시 동제원길,80,,5.01101E+24,,제주특별자치도 제주시 동제원길 80,690839,63293,,,,126.561172,33.52168626
MA010120220800908296,목화수반,,G2,소매,G219,식물 소매,G21901,꽃집,G47851,화초 및 식물 소매업,50,제주특별자치도,50110,제주시,50110520,일도2동,5011010200,일도이동,5.01101E+18,1,대지,993,15,제주특별자치도 제주시 일도이동 993-15,5.01105E+11,제주특별자치도 제주시 동문로14길,5,,5.01101E+24,,제주특별자치도 제주시 동문로14길 5,690834,63265,,1,,126.533318,33.51297426
MA010120220801614600,핀아플라워,,G2,소매,G219,식물 소매,G21901,꽃집,G47851,화초 및 식물 소매업,50,제주특별자치도,50110,제주시,50110660,노형동,5011012200,노형동,5.01101E+18,1,대지,2588,6,제주특별자치도 제주시 노형동 2588-6,5.01105E+11,제주특별자치도 제주시 수덕9길,86,,5.01101E+24,,제주특별자치도 제주시 수덕9길 86,690842,63103,,1,,126.4701279,33.48294059
MA010120220801960263,진다육,,G2,소매,G219,식물 소매,G21901,꽃집,G47851,화초 및 식물 소매업,50,제주특별자치도,50110,제주시,50110630,아라동,5011013400,오등동,5.01101E+18,1,대지,816,1,제주특별자치도 제주시 오등동 816-1,5.01105E+11,제주특별자치도 제주시 죽성서길,22,12,5.01101E+24,,제주특별자치도 제주시 죽성서길 22-12,690150,63242,,,,126.5319762,33.46029805
MA010120220802519993,데이무드,,G2,소매,G219,식물 소매,G21901,꽃집,G47851,화초 및 식물 소매업,50,제주특별자치도,50110,제주시,50110520,일도2동,5011010200,일도이동,5.01101E+18,1,대지,356,7,제주특별자치도 제주시 일도이동 356-7,5.01105E+11,제주특별자치도 제주시 고마로13길,26,1,5.01101E+24,,제주특별자치도 제주시 고마로13길 26-1,690833,63253,,,,126.5421506,33.50962625
MA010120220803006135,썸메르,,G2,소매,G219,식물 소매,G21901,꽃집,G47851,화초 및 식물 소매업,50,제주특별자치도,50130,서귀포시,50130253,남원읍,5013025327,남원읍,5.01303E+18,1,대지,4196,1,제주특별자치도 서귀포시 남원읍 위미리 4196-1,5.01305E+11,제주특별자치도 서귀포시 남원읍 태위로2번길,28,,5.01303E+24,,제주특별자치도 서귀포시 남원읍 태위로2번길 28,699944,63611,,1,,126.6486685,33.26939652
MA010120220803150424,보림숲,,G2,소매,G219,식물 소매,G21901,꽃집,G47851,화초 및 식물 소매업,50,제주특별자치도,50110,제주시,50110630,아라동,5011011700,아라일동,5.01101E+18,1,대지,2347,1,제주특별자치도 제주시 아라일동 2347-1,5.01105E+11,제주특별자치도 제주시 구산동길,7,,5.01101E+24,,제주특별자치도 제주시 구산동길 7,690121,63236,,1,,126.5429695,33.4828249
MA010120220803155847,화연플라워샵,,G2,소매,G219,식물 소매,G21901,꽃집,G47851,화초 및 식물 소매업,50,제주특별자치도,50110,제주시,50110259,조천읍,5011025930,조천읍,5.01103E+18,1,대지,896,1,제주특별자치도 제주시 조천읍 선흘리 896-1,5.01103E+11,제주특별자치도 제주시 조천읍 동백로,35,,5.01103E+24,,제주특별자치도 제주시 조천읍 동백로 35,695967,63340,,,,126.710953,33.5098015
MA010120220803277006,부산분재,,G2,소매,G219,식물 소매,G21901,꽃집,G47851,화초 및 식물 소매업,50,제주특별자치도,50110,제주시,50110630,아라동,5011013400,오등동,5.01101E+18,1,대지,1625,4,제주특별자치도 제주시 오등동 1625-4,5.01105E+11,제주특별자치도 제주시 오등1길,89,,5.01101E+24,,제주특별자치도 제주시 오등1길 89,690150,63240,,,,126.5169075,33.47363797
MA010120220803364860,푸른농원,,G2,소매,G219,식물 소매,G21901,꽃집,G47851,화초 및 식물 소매업,50,제주특별자치도,50130,서귀포시,50130253,남원읍,5013025324,남원읍,5.01303E+18,1,대지,441,,제주특별자치도 서귀포시 남원읍 수망리 441,5.01303E+11,제주특별자치도 서귀포시 남원읍 태수로,635,34,5.01303E+24,,제주특별자치도 서귀포시 남원읍 태수로 635-34,699949,63615,,,,126.711984,33.33137499
MA010120220803399131,스마일플라워,,G2,소매,G219,식물 소매,G21901,꽃집,G47851,화초 및 식물 소매업,50,제주특별자치도,50110,제주시,50110570,용담1동,5011010800,용담일동,5.01101E+18,1,대지,285,3,제주특별자치도 제주시 용담일동 285-3,5.01103E+11,제주특별자치도 제주시 용담로,125,,5.01101E+24,층,제주특별자치도 제주시 용담로 125,690819,63154,,1,,126.5149409,33.50991039
MA010120220803878994,안테모사플라워샵,,G2,소매,G219,식물 소매,G21901,꽃집,G47851,화초 및 식물 소매업,50,제주특별자치도,50110,제주시,50110540,이도2동,5011010400,이도이동,5.01101E+18,1,대지,397,,제주특별자치도 제주시 이도이동 397,5.01103E+11,제주특별자치도 제주시 연삼로,462,,5.01101E+24,,제주특별자치도 제주시 연삼로 462,690824,63225,,,,126.5397464,33.49819417
MA010120220804006515,도래물화원,,G2,소매,G219,식물 소매,G21901,꽃집,G47851,화초 및 식물 소매업,50,제주특별자치도,50130,서귀포시,50130610,중문동,5013011300,회수동,5.01301E+18,1,대지,845,3,제주특별자치도 서귀포시 회수동 845-3,5.01303E+11,제주특별자치도 서귀포시 중산간서로,706,,5.01301E+24,도래물화원,제주특별자치도 서귀포시 중산간서로 706,697857,63551,,,,126.440129,33.26349311
MA010120220804415543,벧엘플라워,,G2,소매,G219,식물 소매,G21901,꽃집,G47851,화초 및 식물 소매업,50,제주특별자치도,50110,제주시,50110550,삼도1동,5011010500,삼도일동,5.01101E+18,1,대지,534,17,제주특별자치도 제주시 삼도일동 534-17,5.01103E+11,제주특별자치도 제주시 서사로,134,,5.01101E+24,에덴빌딩,제주특별자치도 제주시 서사로 134,690812,63183,,2,,126.5195561,33.50054281
MA010120220804537080,브리얀떼플라워&캔들,,G2,소매,G219,식물 소매,G21901,꽃집,G47851,화초 및 식물 소매업,50,제주특별자치도,50110,제주시,50110660,노형동,5011012200,노형동,5.01101E+18,1,대지,762,,제주특별자치도 제주시 노형동 762,5.01105E+11,제주특별자치도 제주시 한라대학로,87,,5.01101E+24,,제주특별자치도 제주시 한라대학로 87,690802,63089,,1,,126.4795807,33.47652524
MA010120220804743200,순해다육,,G2,소매,G219,식물 소매,G21901,꽃집,G47851,화초 및 식물 소매업,50,제주특별자치도,50130,서귀포시,50130259,성산읍,5013025925,성산읍,5.01303E+18,1,대지,1247,,제주특별자치도 서귀포시 성산읍 수산리 1247,5.01303E+11,제주특별자치도 서귀포시 성산읍 수산서남로,62,,5.01303E+24,,제주특별자치도 서귀포시 성산읍 수산서남로 62,699902,63630,,,,126.8791441,33.44760742
MA010120220804813892,가시나,,G2,소매,G219,식물 소매,G21901,꽃집,G47851,화초 및 식물 소매업,50,제주특별자치도,50130,서귀포시,50130250,대정읍,5013025021,대정읍,5.01303E+18,1,대지,4067,,제주특별자치도 서귀포시 대정읍 상모리 4067,5.01305E+11,제주특별자치도 서귀포시 대정읍 상모로273번길,14,,5.01303E+24,,제주특별자치도 서귀포시 대정읍 상모로273번길 14,699934,63510,,,,126.2602511,33.22204363
MA010120220804839729,청원조경수농장,,G2,소매,G219,식물 소매,G21901,꽃집,G47851,화초 및 식물 소매업,50,제주특별자치도,50130,서귀포시,50130310,안덕면,5013031023,안덕면,5.01303E+18,1,대지,376,1,제주특별자치도 서귀포시 안덕면 감산리 376-1,5.01303E+11,제주특별자치도 서귀포시 안덕면 감산중로,24,,5.01303E+24,,제주특별자치도 서귀포시 안덕면 감산중로 24,699921,63531,,,,126.3529482,33.25942746
MA010120220805053902,디어마이블루,,G2,소매,G219,식물 소매,G21901,꽃집,G47851,화초 및 식물 소매업,50,제주특별자치도,50110,제주시,50110560,삼도2동,5011010600,삼도이동,5.01101E+18,1,대지,1144,2,제주특별자치도 제주시 삼도이동 1144-2,5.01105E+11,제주특별자치도 제주시 무근성5길,9,,5.01101E+24,,제주특별자치도 제주시 무근성5길 9,690808,63167,,,,126.519322,33.51368709
MA010120220805170937,서연다육식물,,G2,소매,G219,식물 소매,G21901,꽃집,G47851,화초 및 식물 소매업,50,제주특별자치도,50110,제주시,50110640,오라동,5011012000,오라이동,5.01101E+18,1,대지,3289,5,제주특별자치도 제주시 오라이동 3289-5,5.01103E+11,제주특별자치도 제주시 아연로,91,,5.01101E+24,,제주특별자치도 제주시 아연로 91,690162,63147,,,,126.5023017,33.4748334
MA010120220805287505,이타원,,G2,소매,G219,식물 소매,G21901,꽃집,G47851,화초 및 식물 소매업,50,제주특별자치도,50110,제주시,50110253,애월읍,5011025340,애월읍,5.01103E+18,1,대지,841,1,제주특별자치도 제주시 애월읍 하귀1리 841-1,5.01103E+11,제주특별자치도 제주시 애월읍 하광로,162,,5.01103E+24,,제주특별자치도 제주시 애월읍 하광로 162,695918,63052,,,,126.4175886,33.47350862
MA010120220805540751,꽃담다,,G2,소매,G219,식물 소매,G21901,꽃집,G47851,화초 및 식물 소매업,50,제주특별자치도,50110,제주시,50110550,삼도1동,5011010500,삼도일동,5.01101E+18,1,대지,559,8,제주특별자치도 제주시 삼도일동 559-8,5.01103E+11,제주특별자치도 제주시 서광로,261,,5.01101E+24,,제주특별자치도 제주시 서광로 261,690846,63182,,1,,126.5244332,33.50014689
MA010120220805527961,현대사,,G2,소매,G219,식물 소매,G21901,꽃집,G47851,화초 및 식물 소매업,50,제주특별자치도,50130,서귀포시,50130570,동홍동,5013010500,동홍동,5.01301E+18,1,대지,779,1,제주특별자치도 서귀포시 동홍동 779-1,5.01305E+11,제주특별자치도 서귀포시 토평서로11번길,142,,5.01301E+24,서귀포향토오일시장,제주특별자치도 서귀포시 토평서로11번길 142,697837,63579,,,,126.5737587,33.26778279
MA010120220805518074,플러리쉬,,G2,소매,G219,식물 소매,G21901,꽃집,G47851,화초 및 식물 소매업,50,제주특별자치도,50110,제주시,50110630,아라동,5011011700,아라일동,5.01101E+18,1,대지,6108,9,제주특별자치도 제주시 아라일동 6108-9,5.01105E+11,제주특별자치도 제주시 인다5길,12,,5.01101E+24,,제주특별자치도 제주시 인다5길 12,690121,63247,,1,,126.547492,33.47592625
MA010120220805694421,룰루플라워,,G2,소매,G219,식물 소매,G21901,꽃집,G47851,화초 및 식물 소매업,50,제주특별자치도,50110,제주시,50110630,아라동,5011011700,아라일동,5.01101E+18,1,대지,6104,2,제주특별자치도 제주시 아라일동 6104-2,5.01105E+11,제주특별자치도 제주시 인다8길,6,,5.01101E+24,상가,제주특별자치도 제주시 인다8길 6,690121,63247,,1,,126.5453504,33.47606266
MA010120220805865578,핀보스,,G2,소매,G219,식물 소매,G21901,꽃집,G47851,화초 및 식물 소매업,50,제주특별자치도,50110,제주시,50110540,이도2동,5011010400,이도이동,5.01101E+18,1,대지,2016,12,제주특별자치도 제주시 이도이동 2016-12,5.01105E+11,제주특별자치도 제주시 구남동4길,23,,5.01101E+24,,제주특별자치도 제주시 구남동4길 23,690851,63232,,1,,126.5380037,33.48794558
MA010120220806002085,플라워페어립트,,G2,소매,G219,식물 소매,G21901,꽃집,G47851,화초 및 식물 소매업,50,제주특별자치도,50110,제주시,50110660,노형동,5011012200,노형동,5.01101E+18,1,대지,1295,1,제주특별자치도 제주시 노형동 1295-1,5.01105E+11,제주특별자치도 제주시 월랑로2길,30,,5.01101E+24,,제주특별자치도 제주시 월랑로2길 30,690804,63098,,,,126.4817055,33.48826386
MA010120220806287817,홍메이드,,G2,소매,G219,식물 소매,G21901,꽃집,G47851,화초 및 식물 소매업,50,제주특별자치도,50110,제주시,50110259,조천읍,5011025926,조천읍,5.01103E+18,1,대지,1113,50,제주특별자치도 제주시 조천읍 대흘리 1113-50,5.01105E+11,제주특별자치도 제주시 조천읍 대흘6길,71,12,5.01103E+24,,제주특별자치도 제주시 조천읍 대흘6길 71-12,695962,63343,,,,126.6656507,33.49064576
MA010120220806625389,꽃델,,G2,소매,G219,식물 소매,G21901,꽃집,G47851,화초 및 식물 소매업,50,제주특별자치도,50110,제주시,50110600,화북동,5011011100,화북일동,5.01101E+18,1,대지,16,9,제주특별자치도 제주시 화북일동 16-9,5.01105E+11,제주특별자치도 제주시 동화로1길,49,17,5.01101E+24,,제주특별자치도 제주시 동화로1길 49-17,690061,63302,,1,,126.5780026,33.51820149
MA010120220806716697,로만티카플라워,,G2,소매,G219,식물 소매,G21901,꽃집,G47851,화초 및 식물 소매업,50,제주특별자치도,50110,제주시,50110630,아라동,5011011700,아라일동,5.01101E+18,1,대지,2754,1,제주특별자치도 제주시 아라일동 2754-1,5.01105E+11,제주특별자치도 제주시 대원북길,8,,5.01101E+24,,제주특별자치도 제주시 대원북길 8,690121,63236,,1,,126.5331799,33.47653133
MA010120220806766385,한라다육농원,,G2,소매,G219,식물 소매,G21901,꽃집,G47851,화초 및 식물 소매업,50,제주특별자치도,50110,제주시,50110660,노형동,5011012200,노형동,5.01101E+18,1,대지,315,5,제주특별자치도 제주시 노형동 315-5,5.01105E+11,제주특별자치도 제주시 신비마을길,40,,5.01101E+24,,제주특별자치도 제주시 신비마을길 40,690802,63078,,,,126.4836076,33.44695172
MA010120220806836321,아시아화초및식물,,G2,소매,G219,식물 소매,G21901,꽃집,G47851,화초 및 식물 소매업,50,제주특별자치도,50130,서귀포시,50130253,남원읍,5013025321,남원읍,5.01303E+18,1,대지,242,,제주특별자치도 서귀포시 남원읍 남원리 242,5.01303E+11,제주특별자치도 서귀포시 남원읍 일주동로,7120,,5.01303E+24,,제주특별자치도 서귀포시 남원읍 일주동로 7120,699941,63619,,1,,126.7194837,33.28359685
MA010120220808042952,수피아다육,,G2,소매,G219,식물 소매,G21901,꽃집,G47851,화초 및 식물 소매업,50,제주특별자치도,50110,제주시,50110640,오라동,5011012100,오라삼동,5.01101E+18,1,대지,2643,11,제주특별자치도 제주시 오라삼동 2643-11,5.01105E+11,제주특별자치도 제주시 월구길,24,1,5.01101E+24,,제주특별자치도 제주시 월구길 24-1,690163,63148,,1,,126.5049841,33.49879947
MA010120220808017667,전지현플라워,,G2,소매,G219,식물 소매,G21901,꽃집,G47851,화초 및 식물 소매업,50,제주특별자치도,50110,제주시,50110550,삼도1동,5011010500,삼도일동,5.01101E+18,1,대지,538,1,제주특별자치도 제주시 삼도일동 538-1,5.01103E+11,제주특별자치도 제주시 서사로,101,,5.01101E+24,,제주특별자치도 제주시 서사로 101,690810,63181,,,,126.5201112,33.50330383
MA010120220808102812,신성꽃집,,G2,소매,G219,식물 소매,G21901,꽃집,G47851,화초 및 식물 소매업,50,제주특별자치도,50110,제주시,50110540,이도2동,5011012900,도남동,5.01101E+18,1,대지,52,6,제주특별자치도 제주시 도남동 52-6,5.01103E+11,제주특별자치도 제주시 신성로,68,,5.01101E+24,,제주특별자치도 제주시 신성로 68,690807,63204,,,,126.5265691,33.49525942
MA010120220808125900,사계절;꽃,,G2,소매,G219,식물 소매,G21901,꽃집,G47851,화초 및 식물 소매업,50,제주특별자치도,50110,제주시,50110250,한림읍,5011025021,한림읍,5.01103E+18,1,대지,1502,,제주특별자치도 제주시 한림읍 귀덕리 1502,5.01105E+11,제주특별자치도 제주시 한림읍 귀덕6길,94,,5.01103E+24,,제주특별자치도 제주시 한림읍 귀덕6길 94,695922,63024,,1,,126.291481,33.43528292
MA010120220808192689,담다플라워,,G2,소매,G219,식물 소매,G21901,꽃집,G47851,화초 및 식물 소매업,50,제주특별자치도,50130,서귀포시,50130570,동홍동,5013010500,동홍동,5.01301E+18,1,대지,774,3,제주특별자치도 서귀포시 동홍동 774-3,5.01305E+11,제주특별자치도 서귀포시 토평서로11번길,150,,5.01301E+24,,제주특별자치도 서귀포시 토평서로11번길 150,697837,63579,,,,126.5732926,33.26651891
MA010120220808202755,꽃파랑여행가게,,G2,소매,G219,식물 소매,G21901,꽃집,G47851,화초 및 식물 소매업,50,제주특별자치도,50130,서귀포시,50130590,대륜동,5013010300,서호동,5.01301E+18,1,대지,256,1,제주특별자치도 서귀포시 서호동 256-1,5.01303E+11,제주특별자치도 서귀포시 서호호근로,74,,5.01301E+24,,제주특별자치도 서귀포시 서호호근로 74,697845,63569,,,,126.5244743,33.25368295
MA010120220808163025,살랑,,G2,소매,G219,식물 소매,G21901,꽃집,G47851,화초 및 식물 소매업,50,제주특별자치도,50130,서귀포시,50130570,동홍동,5013010500,동홍동,5.01301E+18,1,대지,104,1,제주특별자치도 서귀포시 동홍동 104-1,5.01303E+11,제주특별자치도 서귀포시 동홍남로,79,,5.01301E+24,,제주특별자치도 서귀포시 동홍남로 79,697834,63587,,1,,126.5768158,33.2570368
MA010120220808153803,다품종소량생산,,G2,소매,G219,식물 소매,G21901,꽃집,G47851,화초 및 식물 소매업,50,제주특별자치도,50110,제주시,50110256,구좌읍,5011025625,구좌읍,5.01103E+18,1,대지,1376,10,제주특별자치도 제주시 구좌읍 송당리 1376-10,5.01103E+11,제주특별자치도 제주시 구좌읍 중산간동로,2272,,5.01103E+24,,제주특별자치도 제주시 구좌읍 중산간동로 2272,695979,63355,,1,,126.7852474,33.47111149
MA010120220808438631,그로우,,G2,소매,G219,식물 소매,G21901,꽃집,G47851,화초 및 식물 소매업,50,제주특별자치도,50110,제주시,50110630,아라동,5011011800,아라이동,5.01101E+18,1,대지,3011,6,제주특별자치도 제주시 아라이동 3011-6,5.01105E+11,제주특별자치도 제주시 박성내동길,49,,5.01101E+24,,제주특별자치도 제주시 박성내동길 49,690122,63230,,1,,126.5436688,33.49103199
MA010120220808559964,꽃길걷개,,G2,소매,G219,식물 소매,G21901,꽃집,G47851,화초 및 식물 소매업,50,제주특별자치도,50110,제주시,50110259,조천읍,5011025926,조천읍,5.01103E+18,1,대지,1104,25,제주특별자치도 제주시 조천읍 대흘리 1104-25,5.01103E+11,제주특별자치도 제주시 조천읍 중산간동로,804,58,5.01103E+24,,제주특별자치도 제주시 조천읍 중산간동로 804-58,695962,63343,,,,126.6677108,33.48938005
MA010120220808803391,매일나무농장,,G2,소매,G219,식물 소매,G21901,꽃집,G47851,화초 및 식물 소매업,50,제주특별자치도,50110,제주시,50110680,이호동,5011012600,이호이동,5.01101E+18,1,대지,194,1,제주특별자치도 제주시 이호이동 194-1,5.01103E+11,제주특별자치도 제주시 일주서로,7665,,5.01101E+24,,제주특별자치도 제주시 일주서로 7665,690231,63108,,,,126.4653657,33.49450558
MA010120220809206355,꽃가람,,G2,소매,G219,식물 소매,G21901,꽃집,G47851,화초 및 식물 소매업,50,제주특별자치도,50130,서귀포시,50130310,안덕면,5013031022,안덕면,5.01303E+18,1,대지,402,2,제주특별자치도 서귀포시 안덕면 창천리 402-2,5.01305E+11,제주특별자치도 서귀포시 안덕면 일주서로1388번길,10,9,5.01303E+24,,제주특별자치도 서귀포시 안덕면 일주서로1388번길 10-9,699921,63532,,,,126.3675111,33.26242363
MA010120220809240268,꿈에그린,,G2,소매,G219,식물 소매,G21901,꽃집,G47851,화초 및 식물 소매업,50,제주특별자치도,50130,서귀포시,50130580,서홍동,5013010600,서홍동,5.01301E+18,1,대지,1588,3,제주특별자치도 서귀포시 서홍동 1588-3,5.01303E+11,제주특별자치도 서귀포시 홍중로,99,,5.01301E+24,,제주특별자치도 서귀포시 홍중로 99,697853,63584,,,,126.5554162,33.26140716
MA010120220809629217,하효로55다육정원,,G2,소매,G219,식물 소매,G21901,꽃집,G47851,화초 및 식물 소매업,50,제주특별자치도,50130,서귀포시,50130550,효돈동,5013010800,하효동,5.01301E+18,1,대지,32,,제주특별자치도 서귀포시 하효동 32,5.01303E+11,제주특별자치도 서귀포시 하효로,55,,5.01301E+24,,제주특별자치도 서귀포시 하효로 55,697030,63606,,,,126.6189936,33.26636981
MA010120220809666777,제코비,,G2,소매,G219,식물 소매,G21901,꽃집,G47851,화초 및 식물 소매업,50,제주특별자치도,50110,제주시,50110600,화북동,5011011100,화북일동,5.01101E+18,1,대지,1004,3,제주특별자치도 제주시 화북일동 1004-3,5.01103E+11,제주특별자치도 제주시 화삼북로,36,,5.01101E+24,,제주특별자치도 제주시 화삼북로 36,690061,63303,,4,,126.5767487,33.51708825
MA010120220809759020,소일섬,,G2,소매,G219,식물 소매,G21901,꽃집,G47851,화초 및 식물 소매업,50,제주특별자치도,50110,제주시,50110253,애월읍,5011025341,애월읍,5.01103E+18,1,대지,1308,1,제주특별자치도 제주시 애월읍 하귀2리 1308-1,5.01103E+11,제주특별자치도 제주시 애월읍 항몽로,40,,5.01103E+24,,제주특별자치도 제주시 애월읍 항몽로 40,695918,63051,,1,,126.4055809,33.48004223
MA010120220809893274,쥬드플뢰르,,G2,소매,G219,식물 소매,G21901,꽃집,G47851,화초 및 식물 소매업,50,제주특별자치도,50130,서귀포시,50130600,대천동,5013011600,강정동,5.01301E+18,1,대지,153,6,제주특별자치도 서귀포시 강정동 153-6,5.01305E+11,제주특별자치도 서귀포시 신서로48번길,9,,5.01301E+24,,제주특별자치도 서귀포시 신서로48번길 9,697826,63566,,,,126.5063035,33.25419819
MA010120220809888785,리도,,G2,소매,G219,식물 소매,G21901,꽃집,G47851,화초 및 식물 소매업,50,제주특별자치도,50110,제주시,50110540,이도2동,5011010400,이도이동,5.01101E+18,1,대지,1975,2,제주특별자치도 제주시 이도이동 1975-2,5.01105E+11,제주특별자치도 제주시 박성내서길,8,,5.01101E+24,리도,제주특별자치도 제주시 박성내서길 8,690851,63231,,1,,126.5408647,33.4922478
MA010120220810028412,가든피오니플라워,,G2,소매,G219,식물 소매,G21901,꽃집,G47851,화초 및 식물 소매업,50,제주특별자치도,50110,제주시,50110630,아라동,5011011800,아라이동,5.01101E+18,1,대지,3009,3,제주특별자치도 제주시 아라이동 3009-3,5.01103E+11,제주특별자치도 제주시 승천로,89,,5.01101E+24,,제주특별자치도 제주시 승천로 89,690122,63229,,,,126.5441414,33.49121404
MA010120220810118279,엘랑플라워,,G2,소매,G219,식물 소매,G21901,꽃집,G47851,화초 및 식물 소매업,50,제주특별자치도,50110,제주시,50110630,아라동,5011011700,아라일동,5.01101E+18,1,대지,6116,8,제주특별자치도 제주시 아라일동 6116-8,5.01105E+11,제주특별자치도 제주시 인다10길,35,,5.01101E+24,,제주특별자치도 제주시 인다10길 35,690121,63247,,,,126.549403,33.47463491
MA010120220810158154,플로화,,G2,소매,G219,식물 소매,G21901,꽃집,G47851,화초 및 식물 소매업,50,제주특별자치도,50110,제주시,50110540,이도2동,5011010400,이도이동,5.01101E+18,1,대지,1981,15,제주특별자치도 제주시 이도이동 1981-15,5.01105E+11,제주특별자치도 제주시 남광로2길,39,12,5.01101E+24,,제주특별자치도 제주시 남광로2길 39-12,690851,63230,,1,,126.5406834,33.48990298
MA010120220810139416,꽃집,글로리아,G2,소매,G219,식물 소매,G21901,꽃집,G47851,화초 및 식물 소매업,50,제주특별자치도,50130,서귀포시,50130510,송산동,5013011100,토평동,5.01301E+18,1,대지,417,2,제주특별자치도 서귀포시 토평동 417-2,5.01303E+11,제주특별자치도 서귀포시 칠십리로,330,,5.01301E+24,라임오렌지레스토랑,제주특별자치도 서귀포시 칠십리로 330,697859,63599,,,,126.5871037,33.2464141
MA010120220810280649,섬꽃,,G2,소매,G219,식물 소매,G21901,꽃집,G47851,화초 및 식물 소매업,50,제주특별자치도,50130,서귀포시,50130570,동홍동,5013010500,동홍동,5.01301E+18,1,대지,1950,,제주특별자치도 서귀포시 동홍동 1950,5.01305E+11,제주특별자치도 서귀포시 지장샘로182번길,41,,5.01301E+24,,제주특별자치도 서귀포시 지장샘로182번길 41,697839,63579,,,,126.55899,33.27635083
MA010120220811318208,주희네꽃집,,G2,소매,G219,식물 소매,G21901,꽃집,G47851,화초 및 식물 소매업,50,제주특별자치도,50110,제주시,50110570,용담1동,5011010800,용담일동,5.01101E+18,1,대지,242,11,제주특별자치도 제주시 용담일동 242-11,5.01103E+11,제주특별자치도 제주시 서문로,20,3,5.01101E+24,,제주특별자치도 제주시 서문로 20-3,690820,63174,,,,126.5137144,33.50982444
MA010120220811305808,소라화원，유어버스데이,,G2,소매,G219,식물 소매,G21901,꽃집,G47851,화초 및 식물 소매업,50,제주특별자치도,50110,제주시,50110540,이도2동,5011010400,이도이동,5.01101E+18,1,대지,1026,14,제주특별자치도 제주시 이도이동 1026-14,5.01103E+11,제주특별자치도 제주시 중앙로,316,,5.01101E+24,,제주특별자치도 제주시 중앙로 316,690826,63222,,,,126.5351155,33.49282141
MA010120220811320871,대방조경,,G2,소매,G219,식물 소매,G21901,꽃집,G47851,화초 및 식물 소매업,50,제주특별자치도,50110,제주시,50110253,애월읍,5011025329,애월읍,5.01103E+18,1,대지,687,,제주특별자치도 제주시 애월읍 고성리 687,5.01103E+11,제주특별자치도 제주시 애월읍 광상로,129,,5.01103E+24,,제주특별자치도 제주시 애월읍 광상로 129,695902,63058,,,,126.4169646,33.44618745
MA010120220811331396,플라워몰,,G2,소매,G219,식물 소매,G21901,꽃집,G47992,계약배달 판매업,50,제주특별자치도,50110,제주시,50110650,연동,5011013700,연동,5.01101E+18,1,대지,304,26,제주특별자치도 제주시 연동 304-26,5.01103E+11,제주특별자치도 제주시 신대로,145,,5.01101E+24,,제주특별자치도 제주시 신대로 145,690814,63134,,,,126.4967171,33.48430463
MA010120220811352946,박샘플라워,,G2,소매,G219,식물 소매,G21901,꽃집,G47851,화초 및 식물 소매업,50,제주특별자치도,50110,제주시,50110560,삼도2동,5011010600,삼도이동,5.01101E+18,1,대지,223,5,제주특별자치도 제주시 삼도이동 223-5,5.01103E+11,제주특별자치도 제주시 중앙로,124,1,5.01101E+24,,제주특별자치도 제주시 중앙로 124-1,690809,63170,,,,126.5243826,33.50743156
MA010120220811338974,행복이가득한꽃집,,G2,소매,G219,식물 소매,G21901,꽃집,G47851,화초 및 식물 소매업,50,제주특별자치도,50110,제주시,50110520,일도2동,5011010200,일도이동,5.01101E+18,1,대지,359,13,제주특별자치도 제주시 일도이동 359-13,5.01103E+11,제주특별자치도 제주시 동광로,119,,5.01101E+24,,제주특별자치도 제주시 동광로 119,690833,63273,,,,126.5395061,33.50700183
MA010120220811360720,제주자연잔디,,G2,소매,G219,식물 소매,G21901,꽃집,G47851,화초 및 식물 소매업,50,제주특별자치도,50110,제주시,50110630,아라동,5011011700,아라일동,5.01101E+18,1,대지,6044,3,제주특별자치도 제주시 아라일동 6044-3,5.01105E+11,제주특별자치도 제주시 아란3길,13,3,5.01101E+24,아라지엘지,제주특별자치도 제주시 아란3길 13-3,690121,63237,,2,,126.5415283,33.47658954
MA010120220811325674,영아꽃집,,G2,소매,G219,식물 소매,G21901,꽃집,G47851,화초 및 식물 소매업,50,제주특별자치도,50130,서귀포시,50130259,성산읍,5013025924,성산읍,5.01303E+18,1,대지,322,1,제주특별자치도 서귀포시 성산읍 고성리 322-1,5.01303E+11,제주특별자치도 서귀포시 성산읍 고성오조로,52,,5.01303E+24,,제주특별자치도 서귀포시 성산읍 고성오조로 52,699901,63640,,,,126.9152378,33.44827748
MA010120220811334078,엘리스의손짓,,G2,소매,G219,식물 소매,G21901,꽃집,G47851,화초 및 식물 소매업,50,제주특별자치도,50110,제주시,50110540,이도2동,5011010400,이도이동,5.01101E+18,1,대지,419,,제주특별자치도 제주시 이도이동 419,5.01105E+11,제주특별자치도 제주시 정든로3길,42,,5.01101E+24,,제주특별자치도 제주시 정든로3길 42,690824,63225,,2,,126.5431385,33.49981156
MA010120220811351419,에일린정원,,G2,소매,G219,식물 소매,G21901,꽃집,G47851,화초 및 식물 소매업,50,제주특별자치도,50110,제주시,50110690,도두동,5011012700,도두일동,5.01101E+18,1,대지,1293,2,제주특별자치도 제주시 도두일동 1293-2,5.01105E+11,제주특별자치도 제주시 오일장중길,83,,5.01101E+24,,제주특별자치도 제주시 오일장중길 83,690241,63116,,,,126.4758898,33.49807576
MA010120220811355936,엔젤플라워,,G2,소매,G219,식물 소매,G21901,꽃집,G47851,화초 및 식물 소매업,50,제주특별자치도,50110,제주시,50110610,삼양동,5011011400,삼양이동,5.01101E+18,1,대지,2130,8,제주특별자치도 제주시 삼양이동 2130-8,5.01105E+11,제주특별자치도 제주시 설촌로2길,23,,5.01101E+24,,제주특별자치도 제주시 설촌로2길 23,690071,63319,,1,,126.5838619,33.5218998
MA010120220811339262,마미야앤코,,G2,소매,G219,식물 소매,G21901,꽃집,G47851,화초 및 식물 소매업,50,제주특별자치도,50110,제주시,50110530,이도1동,5011010300,이도일동,5.01101E+18,1,대지,1245,4,제주특별자치도 제주시 이도일동 1245-4,5.01103E+11,제주특별자치도 제주시 동광로,37,,5.01101E+24,,제주특별자치도 제주시 동광로 37,690828,63196,,,,126.5328032,33.50262205
MA010120220811338557,곡천화원,,G2,소매,G219,식물 소매,G21901,꽃집,G47851,화초 및 식물 소매업,50,제주특별자치도,50110,제주시,50110650,연동,5011013700,연동,5.01101E+18,1,대지,301,12,제주특별자치도 제주시 연동 301-12,5.01103E+11,제주특별자치도 제주시 신대로,67,,5.01101E+24,,제주특별자치도 제주시 신대로 67,690814,63119,,,,126.4969886,33.49132013
MA010120220811381472,법인아우수,,G2,소매,G219,식물 소매,G21901,꽃집,G47851,화초 및 식물 소매업,50,제주특별자치도,50130,서귀포시,50130600,대천동,5013011600,강정동,5.01301E+18,1,대지,596,2,제주특별자치도 서귀포시 강정동 596-2,5.01303E+11,제주특별자치도 서귀포시 이어도로,866,13,5.01301E+24,,제주특별자치도 서귀포시 이어도로 866-13,697827,63573,,,,126.5071385,33.23542961
MA010120220811327406,흥농종묘,대리점,G2,소매,G219,식물 소매,G21901,꽃집,G47851,화초 및 식물 소매업,50,제주특별자치도,50130,서귀포시,50130250,대정읍,5013025022,대정읍,5.01303E+18,1,대지,1188,1,제주특별자치도 서귀포시 대정읍 하모리 1188-1,5.01303E+11,제주특별자치도 서귀포시 대정읍 신영로,17,,5.01303E+24,,제주특별자치도 서귀포시 대정읍 신영로 17,699935,63507,,,,126.2476076,33.22411365
MA010120220811977301,더플라워,,G2,소매,G219,식물 소매,G21901,꽃집,G47851,화초 및 식물 소매업,50,제주특별자치도,50130,서귀포시,50130250,대정읍,5013025029,대정읍,5.01303E+18,1,대지,2477,,제주특별자치도 서귀포시 대정읍 보성리 2477,5.01303E+11,제주특별자치도 서귀포시 대정읍 글로벌에듀로,370,,5.01303E+24,이노에듀파크,제주특별자치도 서귀포시 대정읍 글로벌에듀로 370,699931,63644,,,,126.278241,33.28072702
MA010120220811744302,현스플라워,,G2,소매,G219,식물 소매,G21901,꽃집,G47851,화초 및 식물 소매업,50,제주특별자치도,50130,서귀포시,50130600,대천동,5013011600,강정동,5.01301E+18,1,대지,143,9,제주특별자치도 서귀포시 강정동 143-9,5.01305E+11,제주특별자치도 서귀포시 신서귀로97번길,12,7,5.01301E+24,,제주특별자치도 서귀포시 신서귀로97번길 12-7,697826,63565,,2,,126.5085503,33.25731771
MA010120220811807231,란이네꽃집,,G2,소매,G219,식물 소매,G21901,꽃집,G47851,화초 및 식물 소매업,50,제주특별자치도,50110,제주시,50110253,애월읍,5011025342,애월읍,5.01103E+18,1,대지,1044,6,제주특별자치도 제주시 애월읍 유수암리 1044-6,5.01105E+11,제주특별자치도 제주시 애월읍 유수암평화5길,15,30,5.01103E+24,,제주특별자치도 제주시 애월읍 유수암평화5길 15-30,695916,63067,,,,126.4059055,33.42299102
MA010120220811761979,은정다육공방까페,,G2,소매,G219,식물 소매,G21901,꽃집,G47851,화초 및 식물 소매업,50,제주특별자치도,50110,제주시,50110600,화북동,5011011100,화북일동,5.01101E+18,1,대지,1964,20,제주특별자치도 제주시 화북일동 1964-20,5.01105E+11,제주특별자치도 제주시 진동로3길,11,,5.01101E+24,,제주특별자치도 제주시 진동로3길 11,690839,63292,,,,126.5644524,33.52006596
MA010120220811553599,엘라플라워,,G2,소매,G219,식물 소매,G21901,꽃집,G47851,화초 및 식물 소매업,50,제주특별자치도,50110,제주시,50110253,애월읍,5011025330,애월읍,5.01103E+18,1,대지,312,2,제주특별자치도 제주시 애월읍 하가리 312-2,5.01103E+11,제주특별자치도 제주시 애월읍 하가로,23,,5.01103E+24,,제주특별자치도 제주시 애월읍 하가로 23,695915,63036,,,,126.3574453,33.46547582
MA010120220812027288,은가비,,G2,소매,G219,식물 소매,G21901,꽃집,G47851,화초 및 식물 소매업,50,제주특별자치도,50110,제주시,50110253,애월읍,5011025339,애월읍,5.01103E+18,1,대지,4099,,제주특별자치도 제주시 애월읍 봉성리 4099,5.01103E+11,제주특별자치도 제주시 애월읍 봉성로,34,1,5.01103E+24,,제주특별자치도 제주시 애월읍 봉성로 34-1,695907,63039,,,,126.3105745,33.41680878
MA010120220812578752,제주플라워,,G2,소매,G219,식물 소매,G21901,꽃집,G47851,화초 및 식물 소매업,50,제주특별자치도,50110,제주시,50110250,한림읍,5011025029,한림읍,5.01103E+18,1,대지,1086,,제주특별자치도 제주시 한림읍 상대리 1086,5.01103E+11,제주특별자치도 제주시 한림읍 월각로,222,2,5.01103E+24,,제주특별자치도 제주시 한림읍 월각로 222-2,695921,63022,,,,126.306637,33.3995484
MA010120220812584940,홀리가든,,G2,소매,G219,식물 소매,G21901,꽃집,G47851,화초 및 식물 소매업,50,제주특별자치도,50130,서귀포시,50130560,영천동,5013011100,토평동,5.01301E+18,1,대지,1989,10,제주특별자치도 서귀포시 토평동 1989-10,5.01305E+11,제주특별자치도 서귀포시 516로277번길,27,,5.01301E+24,,제주특별자치도 서귀포시 516로277번길 27,697859,63580,,,,126.5832372,33.27881478
MA010120220812375463,꿀베리다육,,G2,소매,G219,식물 소매,G21901,꽃집,G47851,화초 및 식물 소매업,50,제주특별자치도,50110,제주시,50110253,애월읍,5011025329,애월읍,5.01103E+18,1,대지,532,1,제주특별자치도 제주시 애월읍 고성리 532-1,5.01105E+11,제주특별자치도 제주시 애월읍 고성8길,41,1,5.01103E+24,,제주특별자치도 제주시 애월읍 고성8길 41-1,695902,63058,,,,126.4195709,33.4553238
MA010120220812340636,화목해,,G2,소매,G219,식물 소매,G21901,꽃집,G47851,화초 및 식물 소매업,50,제주특별자치도,50130,서귀포시,50130253,남원읍,5013025327,남원읍,5.01303E+18,1,대지,3153,,제주특별자치도 서귀포시 남원읍 위미리 3153,5.01305E+11,제주특별자치도 서귀포시 남원읍 위미대화로15번길,9,6,5.01303E+24,,제주특별자치도 서귀포시 남원읍 위미대화로15번길 9-6,699944,63611,,,,126.6561232,33.27336651
MA010120220812323218,벨롱플라워앤캔들,,G2,소매,G219,식물 소매,G21901,꽃집,G47851,화초 및 식물 소매업,50,제주특별자치도,50110,제주시,50110540,이도2동,5011012900,도남동,5.01101E+18,1,대지,910,8,제주특별자치도 제주시 도남동 910-8,5.01103E+11,제주특별자치도 제주시 도남로,32,1,5.01101E+24,,제주특별자치도 제주시 도남로 32-1,690806,63201,,,,126.5258377,33.49717702
MA010120220812432132,그읏;굳;꽃;보다아름답다,,G2,소매,G219,식물 소매,G21901,꽃집,G47851,화초 및 식물 소매업,50,제주특별자치도,50110,제주시,50110660,노형동,5011012200,노형동,5.01101E+18,1,대지,2895,2,제주특별자치도 제주시 노형동 2895-2,5.01105E+11,제주특별자치도 제주시 광평중길,1,,5.01101E+24,헤리티지,제주특별자치도 제주시 광평중길 1,690805,63105,,1,,126.4657593,33.48474305
MA010120220812095229,재연조경,,G2,소매,G219,식물 소매,G21901,꽃집,G47851,화초 및 식물 소매업,50,제주특별자치도,50130,서귀포시,50130620,예래동,5013011900,색달동,5.01301E+18,1,대지,1622,2,제주특별자치도 서귀포시 색달동 1622-2,5.01303E+11,제주특별자치도 서귀포시 중산간서로,935,,5.01301E+24,,제주특별자치도 서귀포시 중산간서로 935,697807,63534,,,,126.4164773,33.26475482
MA010120220813229227,풀퍼센트,,G2,소매,G219,식물 소매,G21901,꽃집,G47851,화초 및 식물 소매업,50,제주특별자치도,50110,제주시,50110520,일도2동,5011010200,일도이동,5.01101E+18,1,대지,362,20,제주특별자치도 제주시 일도이동 362-20,5.01103E+11,제주특별자치도 제주시 신산로,107,,5.01101E+24,덕산가온누리빌,제주특별자치도 제주시 신산로 107,690833,63274,,,,126.5362898,33.50467275
MA010120220812971336,법인제주뜰,,G2,소매,G219,식물 소매,G21901,꽃집,G47851,화초 및 식물 소매업,50,제주특별자치도,50110,제주시,50110550,삼도1동,5011010500,삼도일동,5.01101E+18,1,대지,559,10,제주특별자치도 제주시 삼도일동 559-10,5.01103E+11,제주특별자치도 제주시 서광로,265,,5.01101E+24,,제주특별자치도 제주시 서광로 265,690846,63182,,1,,126.5247447,33.50025628
MA010120220813156952,춘삼월,,G2,소매,G219,식물 소매,G21901,꽃집,G47851,화초 및 식물 소매업,50,제주특별자치도,50110,제주시,50110256,구좌읍,5011025628,구좌읍,5.01103E+18,1,대지,1,26,제주특별자치도 제주시 구좌읍 세화리 1-26,5.01105E+11,제주특별자치도 제주시 구좌읍 해녀박물관길,29,,5.01103E+24,,제주특별자치도 제주시 구좌읍 해녀박물관길 29,695973,63361,,1,,126.8622243,33.52355905
MA010120220812908351,힐링조경,,G2,소매,G219,식물 소매,G21901,꽃집,G47851,화초 및 식물 소매업,50,제주특별자치도,50130,서귀포시,50130250,대정읍,5013025023,대정읍,5.01303E+18,1,대지,1577,,제주특별자치도 서귀포시 대정읍 안성리 1577,5.01303E+11,제주특별자치도 서귀포시 대정읍 일주서로,2201,10,5.01303E+24,,제주특별자치도 서귀포시 대정읍 일주서로 2201-10,699931,63520,,,,126.2827615,33.24904355
MA010120220812829890,수피아,,G2,소매,G219,식물 소매,G21901,꽃집,G47851,화초 및 식물 소매업,50,제주특별자치도,50110,제주시,50110640,오라동,5011012100,오라삼동,5.01101E+18,1,대지,2643,11,제주특별자치도 제주시 오라삼동 2643-11,5.01105E+11,제주특별자치도 제주시 월구길,24,1,5.01101E+24,,제주특별자치도 제주시 월구길 24-1,690163,63148,,1,,126.5049841,33.49879947
MA010120220812886544,율리아나의정원,,G2,소매,G219,식물 소매,G21901,꽃집,G47851,화초 및 식물 소매업,50,제주특별자치도,50110,제주시,50110253,애월읍,5011025321,애월읍,5.01103E+18,1,대지,2666,3,제주특별자치도 제주시 애월읍 광령리 2666-3,5.01103E+11,제주특별자치도 제주시 애월읍 하광로,540,,5.01103E+24,,제주특별자치도 제주시 애월읍 하광로 540,695900,63062,,,,126.4309403,33.44374594
MA010120220812835350,수원꽃육묘장,,G2,소매,G219,식물 소매,G21901,꽃집,G47851,화초 및 식물 소매업,50,제주특별자치도,50110,제주시,50110250,한림읍,5011025022,한림읍,5.01103E+18,1,대지,265,6,제주특별자치도 제주시 한림읍 수원리 265-6,5.01105E+11,제주특별자치도 제주시 한림읍 수원11길,16,11,5.01103E+24,,제주특별자치도 제주시 한림읍 수원11길 16-11,695928,63023,,,,126.271585,33.43042532
MA010120220813308527,꽃나비다육이랑,,G2,소매,G219,식물 소매,G21901,꽃집,G47851,화초 및 식물 소매업,50,제주특별자치도,50130,서귀포시,50130259,성산읍,5013025928,성산읍,5.01303E+18,1,대지,243,3,제주특별자치도 서귀포시 성산읍 삼달리 243-3,5.01303E+11,제주특별자치도 서귀포시 성산읍 삼달로,103,,5.01303E+24,,제주특별자치도 서귀포시 성산읍 삼달로 103,699905,63635,,,,126.8584348,33.37151612
MA010120220813842602,나경플라워&데코,,G2,소매,G219,식물 소매,G21901,꽃집,G47851,화초 및 식물 소매업,50,제주특별자치도,50110,제주시,50110550,삼도1동,5011010500,삼도일동,5.01101E+18,1,대지,576,18,제주특별자치도 제주시 삼도일동 576-18,5.01105E+11,제주특별자치도 제주시 서사로23길,23,1,5.01101E+24,,제주특별자치도 제주시 서사로23길 23-1,690846,63186,,,,126.5220884,33.49797405
MA010120220813537043,에이프릴가든,,G2,소매,G219,식물 소매,G21901,꽃집,G47851,화초 및 식물 소매업,50,제주특별자치도,50130,서귀포시,50130310,안덕면,5013031028,안덕면,5.01303E+18,1,대지,490,,제주특별자치도 서귀포시 안덕면 동광리 490,5.01303E+11,제주특별자치도 서귀포시 안덕면 신화역사로,582,,5.01303E+24,,제주특별자치도 서귀포시 안덕면 신화역사로 582,699925,63524,,1,,126.3495555,33.31026972
MA010120220813961388,로미플라워스튜디오,,G2,소매,G219,식물 소매,G21901,꽃집,G47851,화초 및 식물 소매업,50,제주특별자치도,50110,제주시,50110620,봉개동,5011011600,봉개동,5.01101E+18,1,대지,1904,,제주특별자치도 제주시 봉개동 1904,5.01103E+11,제주특별자치도 제주시 번영로,508,,5.01101E+24,,제주특별자치도 제주시 번영로 508,690090,63313,,1,,126.5954652,33.48965214
MA010120220813397867,잎,,G2,소매,G219,식물 소매,G21901,꽃집,G47851,화초 및 식물 소매업,50,제주특별자치도,50110,제주시,50110250,한림읍,5011025031,한림읍,5.01103E+18,1,대지,1893,,제주특별자치도 제주시 한림읍 협재리 1893,5.01103E+11,제주특별자치도 제주시 한림읍 한림로,381,3,5.01103E+24,,제주특별자치도 제주시 한림읍 한림로 381-3,695934,63011,,1,,126.2433292,33.39669011
MA010120220813447061,그린조경,,G2,소매,G219,식물 소매,G21901,꽃집,G47851,화초 및 식물 소매업,50,제주특별자치도,50130,서귀포시,50130259,성산읍,5013025925,성산읍,5.01303E+18,1,대지,3166,,제주특별자치도 서귀포시 성산읍 수산리 3166,5.01305E+11,제주특별자치도 서귀포시 성산읍 금백조로131번길,56,,5.01303E+24,,제주특별자치도 서귀포시 성산읍 금백조로131번길 56,699902,63631,,,,126.8543518,33.43570655
MA010120220813436325,제주시산림조합나무시장&조경자재판매장,,G2,소매,G219,식물 소매,G21901,꽃집,G47851,화초 및 식물 소매업,50,제주특별자치도,50110,제주시,50110640,오라동,5011012000,오라이동,5.01101E+18,1,대지,849,8,제주특별자치도 제주시 오라이동 849-8,5.01103E+11,제주특별자치도 제주시 오남로,288,,5.01101E+24,,제주특별자치도 제주시 오남로 288,690162,63147,,,,126.5128374,33.47040334
MA010120220813417837,플라워스튜디오민아,,G2,소매,G219,식물 소매,G21901,꽃집,G47851,화초 및 식물 소매업,50,제주특별자치도,50130,서귀포시,50130590,대륜동,5013010400,호근동,5.01301E+18,1,대지,1788,2,제주특별자치도 서귀포시 호근동 1788-2,5.01303E+11,제주특별자치도 서귀포시 호근서호로,134,,5.01301E+24,,제주특별자치도 서귀포시 호근서호로 134,697863,63569,,1,,126.5264605,33.25749539
MA0101202209A0049716,연화플라워,,G2,소매,G219,식물 소매,G21901,꽃집,G47851,화초 및 식물 소매업,50,제주특별자치도,50130,서귀포시,50130570,동홍동,5013010500,동홍동,5.01301E+18,1,대지,538,3,제주특별자치도 서귀포시 동홍동 538-3,5.01305E+11,제주특별자치도 서귀포시 동홍로109번길,13,,5.01301E+24,,제주특별자치도 서귀포시 동홍로109번길 13,697837,63585,,,,126.5670314,33.25862605
MA010120220814356841,꽃모,,G2,소매,G219,식물 소매,G21901,꽃집,G47851,화초 및 식물 소매업,50,제주특별자치도,50130,서귀포시,50130320,표선면,5013032024,표선면,5.01303E+18,1,대지,3017,,제주특별자치도 서귀포시 표선면 가시리 3017,5.01305E+11,제주특별자치도 서귀포시 표선면 녹산로5번길,116,16,5.01303E+24,,제주특별자치도 서귀포시 표선면 녹산로5번길 116-16,699911,63623,,,,126.7551357,33.35999492
MA010120220814218071,드림조경,,G2,소매,G219,식물 소매,G21901,꽃집,G47851,화초 및 식물 소매업,50,제주특별자치도,50130,서귀포시,50130320,표선면,5013032021,표선면,5.01303E+18,1,대지,567,,제주특별자치도 서귀포시 표선면 표선리 567,5.01305E+11,제주특별자치도 서귀포시 표선면 표선중앙로59번길,4,,5.01303E+24,,제주특별자치도 서귀포시 표선면 표선중앙로59번길 4,699914,63629,,,,126.8318912,33.32761897
MA010120220814158875,가람,,G2,소매,G219,식물 소매,G21901,꽃집,G47851,화초 및 식물 소매업,50,제주특별자치도,50110,제주시,50110590,건입동,5011010700,건입동,5.01101E+18,1,대지,670,8,제주특별자치도 제주시 건입동 670-8,5.01105E+11,제주특별자치도 제주시 사라봉3길,24,,5.01101E+24,,제주특별자치도 제주시 사라봉3길 24,690800,63283,,2,,126.5406613,33.51649988
MA0101202302A0044302,디디벨플라워,,G2,소매,G219,식물 소매,G21901,꽃집,G47851,화초 및 식물 소매업,50,제주특별자치도,50110,제주시,50110660,노형동,5011012200,노형동,5.01101E+18,1,대지,1057,2,제주특별자치도 제주시 노형동 1057-2,5.01103E+11,제주특별자치도 제주시 수덕로,13,,5.01101E+24,노형이화2차,제주특별자치도 제주시 수덕로 13,690803,63099,,1,,126.4750581,33.48788426
MA0101202301A0001175,플라워시티,,G2,소매,G219,식물 소매,G21901,꽃집,G47851,화초 및 식물 소매업,50,제주특별자치도,50110,제주시,50110650,연동,5011013700,연동,5.01101E+18,1,대지,281,52,제주특별자치도 제주시 연동 281-52,5.01105E+11,제주특별자치도 제주시 삼무로7길,40,,5.01101E+24,,제주특별자치도 제주시 삼무로7길 40,690814,63125,,4,,126.4931967,33.49020473
MA0101202212C0023457,어라운드플라워,,G2,소매,G219,식물 소매,G21901,꽃집,G47851,화초 및 식물 소매업,50,제주특별자치도,50110,제주시,50110630,아라동,5011011700,아라일동,5.01101E+18,1,대지,6095,18,제주특별자치도 제주시 아라일동 6095-18,5.01105E+11,제주특별자치도 제주시 아란5길,21,,5.01101E+24,,제주특별자치도 제주시 아란5길 21,690121,63237,,,,126.5440125,33.47474142
MA0101202212A0074179,백향목,,G2,소매,G219,식물 소매,G21901,꽃집,G47851,화초 및 식물 소매업,50,제주특별자치도,50110,제주시,50110540,이도2동,5011010400,이도이동,5.01101E+18,1,대지,1019,5,제주특별자치도 제주시 이도이동 1019-5,5.01105E+11,제주특별자치도 제주시 고산동산6길,9,,5.01101E+24,,제주특별자치도 제주시 고산동산6길 9,690826,63206,,,,126.5323832,33.4946594
MA0101202301A0088499,아리르,,G2,소매,G219,식물 소매,G21901,꽃집,G47851,화초 및 식물 소매업,50,제주특별자치도,50110,제주시,50110630,아라동,5011011800,아라이동,5.01101E+18,1,대지,3005,2,제주특별자치도 제주시 아라이동 3005-2,5.01103E+11,제주특별자치도 제주시 신설로,46,,5.01101E+24,,제주특별자치도 제주시 신설로 46,690122,63229,,,,126.5448764,33.49263225
MA0101202301A0035825,블라썸,,G2,소매,G219,식물 소매,G21901,꽃집,G47851,화초 및 식물 소매업,50,제주특별자치도,50110,제주시,50110650,연동,5011013700,연동,5.01101E+18,1,대지,294,11,제주특별자치도 제주시 연동 294-11,5.01105E+11,제주특별자치도 제주시 연동14길,8,,5.01101E+24,경한빌라,제주특별자치도 제주시 연동14길 8,690814,63133,,1,,126.4942811,33.48505205
MA0101202301A0072891,소피토제주,,G2,소매,G219,식물 소매,G21901,꽃집,G47851,화초 및 식물 소매업,50,제주특별자치도,50110,제주시,50110690,도두동,5011012700,도두일동,5.01101E+18,1,대지,2539,1,제주특별자치도 제주시 도두일동 2539-1,5.01103E+11,제주특별자치도 제주시 서해안로,135,,5.01101E+24,동쪽끝부분,제주특별자치도 제주시 서해안로 135,690241,63113,,1,,126.4639471,33.50294734
MA0101202212A0005159,원더플,,G2,소매,G219,식물 소매,G21901,꽃집,G47851,화초 및 식물 소매업,50,제주특별자치도,50130,서귀포시,50130570,동홍동,5013010500,동홍동,5.01301E+18,1,대지,431,1,제주특별자치도 서귀포시 동홍동 431-1,5.01303E+11,제주특별자치도 서귀포시 문부로,7,,5.01301E+24,,제주특별자치도 서귀포시 문부로 7,697835,63589,,,,126.5686086,33.25214881
MA0101202211A0064966,엠더블유팜,,G2,소매,G219,식물 소매,G21901,꽃집,G47851,화초 및 식물 소매업,50,제주특별자치도,50110,제주시,50110259,조천읍,5011025928,조천읍,5.01103E+18,1,대지,867,1,제주특별자치도 제주시 조천읍 와산리 867-1,5.01103E+11,제주특별자치도 제주시 조천읍 함와로,548,1,5.01103E+24,,제주특별자치도 제주시 조천읍 함와로 548-1,695962,63342,,,,126.6796134,33.49473083
MA0101202211A0068335,포유플라워,,G2,소매,G219,식물 소매,G21901,꽃집,G47851,화초 및 식물 소매업,50,제주특별자치도,50110,제주시,50110630,아라동,5011011800,아라이동,5.01101E+18,1,대지,1315,3,제주특별자치도 제주시 아라이동 1315-3,5.01105E+11,제주특별자치도 제주시 간월동로5길,46,,5.01101E+24,,제주특별자치도 제주시 간월동로5길 46,690122,63245,,,,126.5480653,33.48983996
MA0101202211A0097403,꽃잠,,G2,소매,G219,식물 소매,G21901,꽃집,G47851,화초 및 식물 소매업,50,제주특별자치도,50110,제주시,50110259,조천읍,5011025928,조천읍,5.01103E+18,1,대지,1563,1,제주특별자치도 제주시 조천읍 와산리 1563-1,5.01105E+11,제주특별자치도 제주시 조천읍 와산서1길,32,,5.01103E+24,,제주특별자치도 제주시 조천읍 와산서1길 32,695962,63342,,,,126.6760655,33.49388312
MA0101202306A0007039,목향플라워카페,,G2,소매,G219,식물 소매,G21901,꽃집,G47851,화초 및 식물 소매업,50,제주특별자치도,50110,제주시,50110660,노형동,5011012200,노형동,5.01101E+18,1,대지,2613,5,제주특별자치도 제주시 노형동 2613-5,5.01105E+11,제주특별자치도 제주시 수덕9길,39,,5.01101E+24,상인빌라,제주특별자치도 제주시 수덕9길 39,690805,63102,,1,,126.4740707,33.48568921
MA0101202305A0112912,온담의정원,,G2,소매,G219,식물 소매,G21901,꽃집,G47851,화초 및 식물 소매업,50,제주특별자치도,50130,서귀포시,50130610,중문동,5013011800,하원동,5.01301E+18,1,대지,554,2,제주특별자치도 서귀포시 하원동 554-2,5.01303E+11,제주특별자치도 서귀포시 하원로,68,,5.01301E+24,,제주특별자치도 서귀포시 하원로 68,697857,63541,,1,,126.4608114,33.25982474
MA0101202305A0203034,오리움,,G2,소매,G219,식물 소매,G21901,꽃집,G47851,화초 및 식물 소매업,50,제주특별자치도,50130,서귀포시,50130580,서홍동,5013010600,서홍동,5.01301E+18,1,대지,442,8,제주특별자치도 서귀포시 서홍동 442-8,5.01303E+11,제주특별자치도 서귀포시 일주동로,8710,,5.01301E+24,,제주특별자치도 서귀포시 일주동로 8710,697851,63584,,1,,126.5578739,33.25286848
MA0101202305A0133880,꿈에농원,,G2,소매,G219,식물 소매,G21901,꽃집,G47851,화초 및 식물 소매업,50,제주특별자치도,50130,서귀포시,50130320,표선면,5013032024,표선면,5.01303E+18,1,대지,258,3,제주특별자치도 서귀포시 표선면 가시리 258-3,5.01303E+11,제주특별자치도 서귀포시 표선면 가시로,365,15,5.01303E+24,,제주특별자치도 서귀포시 표선면 가시로 365-15,699911,63623,,1,,126.7878595,33.34370871
MA0101202305A0159174,꽃하나,,G2,소매,G219,식물 소매,G21901,꽃집,G47851,화초 및 식물 소매업,50,제주특별자치도,50110,제주시,50110540,이도2동,5011010400,이도이동,5.01101E+18,1,대지,1946,5,제주특별자치도 제주시 이도이동 1946-5,5.01105E+11,제주특별자치도 제주시 신설로5길,7,,5.01101E+24,해연,제주특별자치도 제주시 신설로5길 7,690851,63227,,1,,126.5443312,33.49400067
MA0101202305A0133237,프레클데이,,G2,소매,G219,식물 소매,G21901,꽃집,G47851,화초 및 식물 소매업,50,제주특별자치도,50110,제주시,50110520,일도2동,5011010200,일도이동,5.01101E+18,1,대지,90,6,제주특별자치도 제주시 일도이동 90-6,5.01105E+11,제주특별자치도 제주시 태성로3길,32,,5.01101E+24,,제주특별자치도 제주시 태성로3길 32,690831,63261,,1,,126.547945,33.50055948
MA0101202305A0052214,꽃향머무는정원,,G2,소매,G219,식물 소매,G21901,꽃집,G47851,화초 및 식물 소매업,50,제주특별자치도,50110,제주시,50110256,구좌읍,5011025628,구좌읍,5.01103E+18,1,대지,1444,,제주특별자치도 제주시 구좌읍 세화리 1444,5.01105E+11,제주특별자치도 제주시 구좌읍 세화2길,20,,5.01103E+24,,제주특별자치도 제주시 구좌읍 세화2길 20,695973,63361,,,,126.8563492,33.52215489
MA0101202305A0031155,해즈빈플라워,,G2,소매,G219,식물 소매,G21901,꽃집,G47851,화초 및 식물 소매업,50,제주특별자치도,50130,서귀포시,50130580,서홍동,5013010600,서홍동,5.01301E+18,1,대지,257,,제주특별자치도 서귀포시 서홍동 257,5.01303E+11,제주특별자치도 서귀포시 중산간동로,8040,1,5.01301E+24,,제주특별자치도 서귀포시 중산간동로 8040-1,697849,63578,,,,126.5577517,33.26434578
MA0101202305A0009976,푸른숲,,G2,소매,G219,식물 소매,G21901,꽃집,G47851,화초 및 식물 소매업,50,제주특별자치도,50130,서귀포시,50130570,동홍동,5013010500,동홍동,5.01301E+18,1,대지,774,3,제주특별자치도 서귀포시 동홍동 774-3,5.01305E+11,제주특별자치도 서귀포시 토평서로11번길,150,,5.01301E+24,서귀포향토오일시장,제주특별자치도 서귀포시 토평서로11번길 150,697837,63579,,,,126.5732926,33.26651891
MA0101202305A0005576,종달꽃집피고지고,,G2,소매,G219,식물 소매,G21901,꽃집,G47851,화초 및 식물 소매업,50,제주특별자치도,50110,제주시,50110256,구좌읍,5011025632,구좌읍,5.01103E+18,1,대지,1963,1,제주특별자치도 제주시 구좌읍 종달리 1963-1,5.01105E+11,제주특별자치도 제주시 구좌읍 종달로7길,8,,5.01103E+24,,제주특별자치도 제주시 구좌읍 종달로7길 8,695976,63364,,,,126.8969775,33.49195559
MA0101202306A0084816,오하이플레르,,G2,소매,G219,식물 소매,G21901,꽃집,G47851,화초 및 식물 소매업,50,제주특별자치도,50110,제주시,50110670,외도동,5011012300,외도일동,5.01101E+18,1,대지,403,3,제주특별자치도 제주시 외도일동 403-3,5.01105E+11,제주특별자치도 제주시 수정2길,21,1,5.01101E+24,그란치아,제주특별자치도 제주시 수정2길 21-1,690191,63069,,1,,126.4273115,33.49185618
MA0101202306A0102851,심을,,G2,소매,G219,식물 소매,G21901,꽃집,G47851,화초 및 식물 소매업,50,제주특별자치도,50110,제주시,50110610,삼양동,5011013100,도련이동,5.01101E+18,1,대지,564,13,제주특별자치도 제주시 도련이동 564-13,5.01103E+11,제주특별자치도 제주시 연삼로,976,,5.01101E+24,,제주특별자치도 제주시 연삼로 976,690071,63326,,2,,126.5893305,33.51499382
MA0101202303A0032599,예플리,,G2,소매,G219,식물 소매,G21901,꽃집,G47851,화초 및 식물 소매업,50,제주특별자치도,50110,제주시,50110630,아라동,5011011700,아라일동,5.01101E+18,1,대지,6112,10,제주특별자치도 제주시 아라일동 6112-10,5.01105E+11,제주특별자치도 제주시 인다3길,20,,5.01101E+24,,제주특별자치도 제주시 인다3길 20,690121,63247,,1,,126.5492351,33.47589653
MA0101202303A0052091,네이쳐플라워,서귀포점,G2,소매,G219,식물 소매,G21901,꽃집,G47851,화초 및 식물 소매업,50,제주특별자치도,50130,서귀포시,50130253,남원읍,5013025327,남원읍,5.01303E+18,1,대지,1758,5,제주특별자치도 서귀포시 남원읍 위미리 1758-5,5.01305E+11,제주특별자치도 서귀포시 남원읍 위미중앙로196번길,24,1,5.01303E+24,,제주특별자치도 서귀포시 남원읍 위미중앙로196번길 24-1,699944,63610,,,,126.664425,33.27216298
MA0101202309A0093112,아마랜스,,G2,소매,G219,식물 소매,G21901,꽃집,G47851,화초 및 식물 소매업,50,제주특별자치도,50110,제주시,50110250,한림읍,5011025029,한림읍,5.01103E+18,1,대지,3379,7,제주특별자치도 제주시 한림읍 상대리 3379-7,5.01103E+11,제주특별자치도 제주시 한림읍 중산간서로,4881,,5.01103E+24,,제주특별자치도 제주시 한림읍 중산간서로 4881,695921,63022,,,,126.2891239,33.40256881
MA0101202309A0092076,초록목록,,G2,소매,G219,식물 소매,G21901,꽃집,G47851,화초 및 식물 소매업,50,제주특별자치도,50110,제주시,50110540,이도2동,5011010400,이도이동,5.01101E+18,1,대지,1965,5,제주특별자치도 제주시 이도이동 1965-5,5.01103E+11,제주특별자치도 제주시 신설로,22,,5.01101E+24,현파크빌,제주특별자치도 제주시 신설로 22,690851,63227,,1,,126.5431911,33.4938973
MA0101202309A0089428,가꾸다,,G2,소매,G219,식물 소매,G21901,꽃집,G47851,화초 및 식물 소매업,50,제주특별자치도,50110,제주시,50110510,일도1동,5011010100,일도일동,5.01101E+18,1,대지,1069,5,제주특별자치도 제주시 일도일동 1069-5,5.01103E+11,제주특별자치도 제주시 동문로,49,,5.01101E+24,,제주특별자치도 제주시 동문로 49,690835,63278,,,,126.5317338,33.51334695
MA0101202309A0086664,룩앳비,,G2,소매,G219,식물 소매,G21901,꽃집,G47851,화초 및 식물 소매업,50,제주특별자치도,50110,제주시,50110510,일도1동,5011010100,일도일동,5.01101E+18,1,대지,1103,,제주특별자치도 제주시 일도일동 1103,5.01105E+11,제주특별자치도 제주시 동문로4길,9,,5.01101E+24,일도일동동문공설시장,제주특별자치도 제주시 동문로4길 9,690836,63264,,B1,,126.5282426,33.51208951
MA0101202308A0062575,소소락,,G2,소매,G219,식물 소매,G21901,꽃집,G47851,화초 및 식물 소매업,50,제주특별자치도,50110,제주시,50110660,노형동,5011012200,노형동,5.01101E+18,1,대지,3101,9,제주특별자치도 제주시 노형동 3101-9,5.01105E+11,제주특별자치도 제주시 광평서길,14,,5.01101E+24,,제주특별자치도 제주시 광평서길 14,690805,63107,,1,,126.4650141,33.47819428
MA0101202308A0071284,해보래플라워,,G2,소매,G219,식물 소매,G21901,꽃집,G47851,화초 및 식물 소매업,50,제주특별자치도,50130,서귀포시,50130259,성산읍,5013025922,성산읍,5.01303E+18,1,대지,53,,제주특별자치도 서귀포시 성산읍 오조리 53,5.01305E+11,제주특별자치도 서귀포시 성산읍 오조로70번길,16,49,5.01303E+24,,제주특별자치도 서귀포시 성산읍 오조로70번길 16-49,699906,63639,,,,126.92109,33.45867692
MA0101202308A0081872,너의프로젝트,,G2,소매,G219,식물 소매,G21901,꽃집,G47851,화초 및 식물 소매업,50,제주특별자치도,50110,제주시,50110540,이도2동,5011010400,이도이동,5.01101E+18,1,대지,1030,21,제주특별자치도 제주시 이도이동 1030-21,5.01105E+11,제주특별자치도 제주시 고산동산1길,9,,5.01101E+24,,제주특별자치도 제주시 고산동산1길 9,690825,63210,,,,126.5322701,33.49767931
MA0101202307A0061215,수라네꽃집,,G2,소매,G219,식물 소매,G21901,꽃집,G47851,화초 및 식물 소매업,50,제주특별자치도,50110,제주시,50110320,추자면,5011032022,추자면,5.01103E+18,1,대지,366,5,제주특별자치도 제주시 추자면 영흥리 366-5,5.01105E+11,제주특별자치도 제주시 추자면 영흥1길,29,,5.01103E+24,,제주특별자치도 제주시 추자면 영흥1길 29,695951,63000,,,,126.29528,33.96070031
MA0101202307A0085699,지구식물,,G2,소매,G219,식물 소매,G21901,꽃집,G47851,화초 및 식물 소매업,50,제주특별자치도,50130,서귀포시,50130320,표선면,5013032021,표선면,5.01303E+18,1,대지,758,1,제주특별자치도 서귀포시 표선면 표선리 758-1,5.01305E+11,제주특별자치도 서귀포시 표선면 표선관정로104번길,8,1,5.01303E+24,,제주특별자치도 서귀포시 표선면 표선관정로104번길 8-1,699914,63629,,,,126.8304809,33.3237671
MA0101202310A0039805,미비포유플라워,,G2,소매,G219,식물 소매,G21901,꽃집,G47851,화초 및 식물 소매업,50,제주특별자치도,50110,제주시,50110540,이도2동,5011010400,이도이동,5.01101E+18,1,대지,1084,12,제주특별자치도 제주시 이도이동 1084-12,5.01103E+11,제주특별자치도 제주시 남광로,19,,5.01101E+24,,제주특별자치도 제주시 남광로 19,690825,63223,,,,126.5380081,33.49320189
MA0101202310A0067947,꽃시집가는날,,G2,소매,G219,식물 소매,G21901,꽃집,G47851,화초 및 식물 소매업,50,제주특별자치도,50130,서귀포시,50130570,동홍동,5013010500,동홍동,5.01301E+18,1,대지,1054,3,제주특별자치도 서귀포시 동홍동 1054-3,5.01305E+11,제주특별자치도 서귀포시 중산간동로7894번길,29,,5.01301E+24,,제주특별자치도 서귀포시 중산간동로7894번길 29,697837,63579,,,,126.5717422,33.26751439
MA0101202310A0057528,개구리화원,,G2,소매,G219,식물 소매,G21901,꽃집,G47851,화초 및 식물 소매업,50,제주특별자치도,50130,서귀포시,50130250,대정읍,5013025028,대정읍,5.01303E+18,1,대지,368,,제주특별자치도 서귀포시 대정읍 동일리 368,5.01305E+11,제주특별자치도 서귀포시 대정읍 암반수마농로329번길,35,,5.01303E+24,,제주특별자치도 서귀포시 대정읍 암반수마농로329번길 35,699932,63505,,,,126.2354443,33.25844493
MA0101202307A0005133,플렌케,,G2,소매,G219,식물 소매,G21901,꽃집,G47851,화초 및 식물 소매업,50,제주특별자치도,50110,제주시,50110630,아라동,5011011700,아라일동,5.01101E+18,1,대지,6110,1,제주특별자치도 제주시 아라일동 6110-1,5.01103E+11,제주특별자치도 제주시 아봉로,34,,5.01101E+24,,제주특별자치도 제주시 아봉로 34,690121,63247,,,,126.5480037,33.47682971
MA0101202307A0032171,살롱드꽃플라워스튜디오,,G2,소매,G219,식물 소매,G21901,꽃집,G47851,화초 및 식물 소매업,50,제주특별자치도,50110,제주시,50110253,애월읍,5011025340,애월읍,5.01103E+18,1,대지,137,14,제주특별자치도 제주시 애월읍 하귀1리 137-14,5.01105E+11,제주특별자치도 제주시 애월읍 하귀동남1길,32,3,5.01103E+24,상가,제주특별자치도 제주시 애월읍 하귀동남1길 32-3,695918,63054,,1,,126.4149252,33.48561343
MA0101202406A0147591,케이농원,,G2,소매,G219,식물 소매,G21901,꽃집,G47851,화초 및 식물 소매업,50,제주특별자치도,50110,제주시,50110259,조천읍,5011025921,조천읍,5.01103E+18,1,대지,1572,2,제주특별자치도 제주시 조천읍 신촌리 1572-2,5.01105E+11,제주특별자치도 제주시 조천읍 신촌남8길,80,8,5.01103E+24,,제주특별자치도 제주시 조천읍 신촌남8길 80-8,695963,63336,,,,126.6236268,33.52399249
MA0101202406A0153751,송광조경농업,,G2,소매,G219,식물 소매,G21901,꽃집,G47851,화초 및 식물 소매업,50,제주특별자치도,50110,제주시,50110520,일도2동,5011010200,일도이동,5.01101E+18,1,대지,1035,4,제주특별자치도 제주시 일도이동 1035-4,5.01103E+11,제주특별자치도 제주시 삼성로,57,,5.01101E+24,,제주특별자치도 제주시 삼성로 57,690834,63268,,1,,126.5313873,33.50774676
MA0101202406A0043049,부케로운,,G2,소매,G219,식물 소매,G21901,꽃집,G47851,화초 및 식물 소매업,50,제주특별자치도,50110,제주시,50110630,아라동,5011011700,아라일동,5.01101E+18,1,대지,6107,4,제주특별자치도 제주시 아라일동 6107-4,5.01105E+11,제주특별자치도 제주시 인다5길,12,13,5.01101E+24,아라비앤채1차,제주특별자치도 제주시 인다5길 12-13,690121,63247,,1,,126.5464605,33.47567003
MA0101202311A0091699,녹음실,,G2,소매,G219,식물 소매,G21901,꽃집,G47851,화초 및 식물 소매업,50,제주특별자치도,50110,제주시,50110550,삼도1동,5011010500,삼도일동,5.01101E+18,1,대지,526,3,제주특별자치도 제주시 삼도일동 526-3,5.01105E+11,제주특별자치도 제주시 서광로13길,32,,5.01101E+24,,제주특별자치도 제주시 서광로13길 32,690812,63176,,1,,126.5179715,33.50296193
MA0101202311A0047137,샤이,,G2,소매,G219,식물 소매,G21901,꽃집,G47851,화초 및 식물 소매업,50,제주특별자치도,50130,서귀포시,50130250,대정읍,5013025021,대정읍,5.01303E+18,1,대지,4067,,제주특별자치도 서귀포시 대정읍 상모리 4067,5.01305E+11,제주특별자치도 서귀포시 대정읍 상모로273번길,14,,5.01303E+24,,제주특별자치도 서귀포시 대정읍 상모로273번길 14,699934,63510,,,,126.2602511,33.22204363
MA0101202311A0010257,오도르,,G2,소매,G219,식물 소매,G21901,꽃집,G47851,화초 및 식물 소매업,50,제주특별자치도,50110,제주시,50110250,한림읍,5011025023,한림읍,5.01103E+18,1,대지,1883,1,제주특별자치도 제주시 한림읍 대림리 1883-1,5.01103E+11,제주특별자치도 제주시 한림읍 한림상로,237,1,5.01103E+24,,제주특별자치도 제주시 한림읍 한림상로 237-1,695925,63030,,,,126.267001,33.41929979
MA0101202311A0011759,아비제,,G2,소매,G219,식물 소매,G21901,꽃집,G47851,화초 및 식물 소매업,50,제주특별자치도,50110,제주시,50110620,봉개동,5011011600,봉개동,5.01101E+18,1,대지,2579,,제주특별자치도 제주시 봉개동 2579,5.01103E+11,제주특별자치도 제주시 번영로,430,,5.01101E+24,,제주특별자치도 제주시 번영로 430,690090,63313,,,,126.5884875,33.4929831
MA0101202311A0010536,순수;꽃,,G2,소매,G219,식물 소매,G21901,꽃집,G47851,화초 및 식물 소매업,50,제주특별자치도,50110,제주시,50110620,봉개동,5011011600,봉개동,5.01101E+18,1,대지,1657,1,제주특별자치도 제주시 봉개동 1657-1,5.01105E+11,제주특별자치도 제주시 봉개북3길,51,,5.01101E+24,,제주특별자치도 제주시 봉개북3길 51,690090,63327,,1,,126.5982781,33.49333079
MA0101202311A0009275,소화꽃예술,,G2,소매,G219,식물 소매,G21901,꽃집,G47851,화초 및 식물 소매업,50,제주특별자치도,50130,서귀포시,50130590,대륜동,5013010200,법환동,5.01301E+18,1,대지,1294,,제주특별자치도 서귀포시 법환동 1294,5.01303E+11,제주특별자치도 서귀포시 이어도로,878,,5.01301E+24,,제주특별자치도 서귀포시 이어도로 878,697110,63573,,,,126.5085073,33.23624649
MA0101202406A0413134,아로피어,,G2,소매,G219,식물 소매,G21901,꽃집,G47851,화초 및 식물 소매업,50,제주특별자치도,50110,제주시,50110570,용담1동,5011010800,용담일동,5.01101E+18,1,대지,2827,17,제주특별자치도 제주시 용담일동 2827-17,5.01105E+11,제주특별자치도 제주시 서광로3길,6,,5.01101E+24,,제주특별자치도 제주시 서광로3길 6,690843,63184,,,,126.5135399,33.50061851
MA0101202406A0251973,다육이패밀리농장,,G2,소매,G219,식물 소매,G21901,꽃집,G47851,화초 및 식물 소매업,50,제주특별자치도,50110,제주시,50110253,애월읍,5011025342,애월읍,5.01103E+18,1,대지,408,11,제주특별자치도 제주시 애월읍 유수암리 408-11,5.01105E+11,제주특별자치도 제주시 애월읍 유수암동1길,64,1,5.01103E+24,,제주특별자치도 제주시 애월읍 유수암동1길 64-1,695916,63067,,,,126.4099693,33.43735481
MA0101202406A0263471,진하다,,G2,소매,G219,식물 소매,G21901,꽃집,G47851,화초 및 식물 소매업,50,제주특별자치도,50110,제주시,50110670,외도동,5011012400,외도이동,5.01101E+18,1,대지,234,10,제주특별자치도 제주시 외도이동 234-10,5.01105E+11,제주특별자치도 제주시 도근내길,19,,5.01101E+24,,제주특별자치도 제주시 도근내길 19,690191,63071,,1,,126.4331493,33.49264036
MA0101202406A0468197,세현농원,,G2,소매,G219,식물 소매,G21901,꽃집,G47851,화초 및 식물 소매업,50,제주특별자치도,50130,서귀포시,50130310,안덕면,5013031027,안덕면,5.01303E+18,1,대지,1418,1,제주특별자치도 서귀포시 안덕면 서광리 1418-1,5.01303E+11,제주특별자치도 서귀포시 안덕면 녹차분재로,44,5,5.01303E+24,,제주특별자치도 서귀포시 안덕면 녹차분재로 44-5,699924,63521,,1,,126.3023619,33.29006114
MA0101202409A0095545,꽃이필요한순간,,G2,소매,G219,식물 소매,G21901,꽃집,G47851,화초 및 식물 소매업,50,제주특별자치도,50110,제주시,50110520,일도2동,5011010200,일도이동,5.01101E+18,1,대지,48,2,제주특별자치도 제주시 일도이동 48-2,5.01103E+11,제주특별자치도 제주시 고마로,127,,5.01101E+24,경천빌딩,제주특별자치도 제주시 고마로 127,690830,63258,,1,,126.5424523,33.5034154
MA0101202408A0030146,제주오름야생화,,G2,소매,G219,식물 소매,G21901,꽃집,G47851,화초 및 식물 소매업,50,제주특별자치도,50110,제주시,50110250,한림읍,5011025034,한림읍,5.01103E+18,1,대지,780,,제주특별자치도 제주시 한림읍 월림리 780,5.01105E+11,제주특별자치도 제주시 한림읍 월림7길,45,30,5.01103E+24,,제주특별자치도 제주시 한림읍 월림7길 45-30,695931,63017,,,,126.2469361,33.3498383
MA0101202408A0049186,정플라워,,G2,소매,G219,식물 소매,G21901,꽃집,G47851,화초 및 식물 소매업,50,제주특별자치도,50110,제주시,50110560,삼도2동,5011010600,삼도이동,5.01101E+18,1,대지,593,28,제주특별자치도 제주시 삼도이동 593-28,5.01105E+11,제주특별자치도 제주시 전농로11길,6,,5.01101E+24,,제주특별자치도 제주시 전농로11길 6,690850,63178,,,,126.5218784,33.50484337
MA0101202408A0034858,리틀램플라워,,G2,소매,G219,식물 소매,G21901,꽃집,G47851,화초 및 식물 소매업,50,제주특별자치도,50110,제주시,50110670,외도동,5011012300,외도일동,5.01101E+18,1,대지,560,2,제주특별자치도 제주시 외도일동 560-2,5.01105E+11,제주특별자치도 제주시 우정로15길,12,,5.01101E+24,부영2차,제주특별자치도 제주시 우정로15길 12,690191,63070,,3,,126.4324196,33.48573986
MA0101202408A0042995,원꽃농원,,G2,소매,G219,식물 소매,G21901,꽃집,G47851,화초 및 식물 소매업,50,제주특별자치도,50110,제주시,50110610,삼양동,5011013000,도련일동,5.01101E+18,1,대지,2669,,제주특별자치도 제주시 도련일동 2669,5.01105E+11,제주특별자치도 제주시 도련남6길,32,6,5.01101E+24,,제주특별자치도 제주시 도련남6길 32-6,690071,63328,,,,126.5759776,33.50525671
MA0101202409A0016195,법인언두필드,,G2,소매,G219,식물 소매,G21901,꽃집,G47851,화초 및 식물 소매업,50,제주특별자치도,50110,제주시,50110256,구좌읍,5011025627,구좌읍,5.01103E+18,1,대지,777,,제주특별자치도 제주시 구좌읍 행원리 777,5.01103E+11,제주특별자치도 제주시 구좌읍 행원로,157,20,5.01103E+24,,제주특별자치도 제주시 구좌읍 행원로 157-20,695975,63358,,,,126.8118152,33.55281265
MA0101202408A0057590,섬다육,,G2,소매,G219,식물 소매,G21901,꽃집,G47851,화초 및 식물 소매업,50,제주특별자치도,50110,제주시,50110250,한림읍,5011025026,한림읍,5.01103E+18,1,대지,1547,3,제주특별자치도 제주시 한림읍 동명리 1547-3,5.01103E+11,제주특별자치도 제주시 한림읍 한림중앙로,90,3,5.01103E+24,,제주특별자치도 제주시 한림읍 한림중앙로 90-3,695926,63013,,,,126.2674423,33.40644575
MA0101202409A0010936,대풍농원,,G2,소매,G219,식물 소매,G21901,꽃집,G47851,화초 및 식물 소매업,50,제주특별자치도,50110,제주시,50110660,노형동,5011013900,해안동,5.01101E+18,1,대지,933,6,제주특별자치도 제주시 해안동 933-6,5.01105E+11,제주특별자치도 제주시 해안마을5길,124,13,5.01101E+24,,제주특별자치도 제주시 해안마을5길 124-13,690802,63077,,1,,126.4603707,33.4635954
MA0101202408A0047414,재재플라워,,G2,소매,G219,식물 소매,G21901,꽃집,G47851,화초 및 식물 소매업,50,제주특별자치도,50110,제주시,50110259,조천읍,5011025929,조천읍,5.01103E+18,1,대지,476,7,제주특별자치도 제주시 조천읍 교래리 476-7,5.01105E+11,제주특별자치도 제주시 조천읍 교래1길,26,1,5.01103E+24,,제주특별자치도 제주시 조천읍 교래1길 26-1,695961,63346,,1,,126.6748974,33.4378454
MA0101202408A0052759,오션플라워,,G2,소매,G219,식물 소매,G21901,꽃집,G47851,화초 및 식물 소매업,50,제주특별자치도,50110,제주시,50110580,용담2동,5011010900,용담이동,5.01101E+18,1,대지,2625,7,제주특별자치도 제주시 용담이동 2625-7,5.01105E+11,제주특별자치도 제주시 서천길,6,,5.01101E+24,,제주특별자치도 제주시 서천길 6,690822,63163,,,,126.5103894,33.50205766
MA0101202408A0059265,푸게르플라워스튜디오,,G2,소매,G219,식물 소매,G21901,꽃집,G47851,화초 및 식물 소매업,50,제주특별자치도,50110,제주시,50110610,삼양동,5011011300,삼양일동,5.01101E+18,1,대지,1577,12,제주특별자치도 제주시 삼양일동 1577-12,5.01105E+11,제주특별자치도 제주시 선사로8길,79,,5.01101E+24,,제주특별자치도 제주시 선사로8길 79,690071,63314,,,,126.5923416,33.52933909
MA0101202406A0545550,스노우폭스플라워제주화북점,,G2,소매,G219,식물 소매,G21901,꽃집,G47851,화초 및 식물 소매업,50,제주특별자치도,50110,제주시,50110600,화북동,5011011100,화북일동,5.01101E+18,1,대지,1244,1,제주특별자치도 제주시 화북일동 1244-1,5.01103E+11,제주특별자치도 제주시 일주동로,233,,5.01101E+24,,제주특별자치도 제주시 일주동로 233,690838,63288,,1,,126.5702775,33.51970763
MA0101202409A0032356,베르디,,G2,소매,G219,식물 소매,G21901,꽃집,G47851,화초 및 식물 소매업,50,제주특별자치도,50110,제주시,50110580,용담2동,5011010900,용담이동,5.01101E+18,1,대지,359,84,제주특별자치도 제주시 용담이동 359-84,5.01103E+11,제주특별자치도 제주시 용담로,83,,5.01101E+24,,제주특별자치도 제주시 용담로 83,690821,63152,,,,126.5116333,33.51244889
MA0101202408A0010254,아르미플라워,,G2,소매,G219,식물 소매,G21901,꽃집,G47851,화초 및 식물 소매업,50,제주특별자치도,50110,제주시,50110253,애월읍,5011025325,애월읍,5.01103E+18,1,대지,2156,,제주특별자치도 제주시 애월읍 수산리 2156,5.01105E+11,제주특별자치도 제주시 애월읍 수산서2길,31,,5.01103E+24,,제주특별자치도 제주시 애월읍 수산서2길 31,695911,63056,,,,126.3801937,33.46588917
MA0101202408A0011622,그린플로라,,G2,소매,G219,식물 소매,G21901,꽃집,G47851,화초 및 식물 소매업,50,제주특별자치도,50130,서귀포시,50130560,영천동,5013011100,토평동,5.01301E+18,1,대지,853,3,제주특별자치도 서귀포시 토평동 853-3,5.01303E+11,제주특별자치도 서귀포시 일주동로,8479,,5.01301E+24,,제주특별자치도 서귀포시 일주동로 8479,697859,63598,,,,126.5820792,33.25599969
MA0101202408A0013674,늘푸른꽃방,,G2,소매,G219,식물 소매,G21901,꽃집,G47851,화초 및 식물 소매업,50,제주특별자치도,50130,서귀포시,50130250,대정읍,5013025022,대정읍,5.01303E+18,1,대지,820,15,제주특별자치도 서귀포시 대정읍 하모리 820-15,5.01303E+11,제주특별자치도 서귀포시 대정읍 상모로,324,,5.01303E+24,,제주특별자치도 서귀포시 대정읍 상모로 324,699935,63510,,1,,126.2547236,33.22240735
MA0101202408A0017345,마리뮤플라워,,G2,소매,G219,식물 소매,G21901,꽃집,G47851,화초 및 식물 소매업,50,제주특별자치도,50130,서귀포시,50130520,정방동,5013010100,서귀동,5.01301E+18,1,대지,123,5,제주특별자치도 서귀포시 서귀동 123-5,5.01303E+11,제주특별자치도 서귀포시 동부로,19,,5.01301E+24,,제주특별자치도 서귀포시 동부로 19,697841,63595,,,,126.5688938,33.24651461
MA0101202409A0159290,엘라이아가든,,G2,소매,G219,식물 소매,G21901,꽃집,G47851,화초 및 식물 소매업,50,제주특별자치도,50110,제주시,50110310,한경면,5011031030,한경면,5.01103E+18,1,대지,1766,1,제주특별자치도 제주시 한경면 저지리 1766-1,5.01103E+11,제주특별자치도 제주시 한경면 용금로,766,,5.01103E+24,,제주특별자치도 제주시 한경면 용금로 766,695947,63005,,,,126.257775,33.33471164
MA0101202406A0488696,코코스,,G2,소매,G219,식물 소매,G21901,꽃집,G47851,화초 및 식물 소매업,50,제주특별자치도,50130,서귀포시,50130320,표선면,5013032021,표선면,5.01303E+18,1,대지,511,3,제주특별자치도 서귀포시 표선면 표선리 511-3,5.01303E+11,제주특별자치도 서귀포시 표선면 표선동서로,309,35,5.01303E+24,,제주특별자치도 서귀포시 표선면 표선동서로 309-35,699914,63629,,,,126.8335094,33.32952358
MA0101202406A0509552,페이버릿썸머,,G2,소매,G219,식물 소매,G21901,꽃집,G47851,화초 및 식물 소매업,50,제주특별자치도,50110,제주시,50110620,봉개동,5011011600,봉개동,5.01101E+18,1,대지,1965,12,제주특별자치도 제주시 봉개동 1965-12,5.01105E+11,제주특별자치도 제주시 봉개대동6길,61,,5.01101E+24,,제주특별자치도 제주시 봉개대동6길 61,690090,63313,,1,,126.5923589,33.48891166
MA0101202409A0268922,가드너스포올,,G2,소매,G219,식물 소매,G21901,꽃집,G47851,화초 및 식물 소매업,50,제주특별자치도,50110,제주시,50110253,애월읍,5011025333,애월읍,5.01103E+18,1,대지,1031,1,제주특별자치도 제주시 애월읍 고내리 1031-1,5.01105E+11,제주특별자치도 제주시 애월읍 고내로7길,9,,5.01103E+24,,제주특별자치도 제주시 애월읍 고내로7길 9,695901,63045,,,,126.3385039,33.46381645
MA0101202409A0256067,톤톤,,G2,소매,G219,식물 소매,G21901,꽃집,G47851,화초 및 식물 소매업,50,제주특별자치도,50110,제주시,50110540,이도2동,5011010400,이도이동,5.01101E+18,1,대지,1028,8,제주특별자치도 제주시 이도이동 1028-8,5.01103E+11,제주특별자치도 제주시 구남로,49,,5.01101E+24,,제주특별자치도 제주시 구남로 49,690826,63222,,1,,126.5349955,33.49112597
MA0101202409A0263142,시예플라워스튜디오,,G2,소매,G219,식물 소매,G21901,꽃집,G47851,화초 및 식물 소매업,50,제주특별자치도,50110,제주시,50110253,애월읍,5011025323,애월읍,5.01103E+18,1,대지,631,4,제주특별자치도 제주시 애월읍 상귀리 631-4,5.01105E+11,제주특별자치도 제주시 애월읍 상귀서길,50,,5.01103E+24,,제주특별자치도 제주시 애월읍 상귀서길 50,695909,63057,,1,,126.4049849,33.46806627
MA0101202409A0264392,구엄리원예정원,,G2,소매,G219,식물 소매,G21901,꽃집,G47851,화초 및 식물 소매업,50,제주특별자치도,50110,제주시,50110253,애월읍,5011025324,애월읍,5.01103E+18,1,대지,858,1,제주특별자치도 제주시 애월읍 구엄리 858-1,5.01103E+11,제주특별자치도 제주시 애월읍 일주서로,6839,,5.01103E+24,,제주특별자치도 제주시 애월읍 일주서로 6839,695905,63049,,,,126.381819,33.47636472
MA0101202409A0176737,제주24시꽃집,,G2,소매,G219,식물 소매,G21901,꽃집,G47851,화초 및 식물 소매업,50,제주특별자치도,50110,제주시,50110570,용담1동,5011010800,용담일동,5.01101E+18,1,대지,2824,15,제주특별자치도 제주시 용담일동 2824-15,5.01103E+11,제주특별자치도 제주시 서광로,157,,5.01101E+24,서쪽,제주특별자치도 제주시 서광로 157,690843,63184,,1,,126.5132834,33.50031096
MA0101202411A0111790,피아노숲,,G2,소매,G219,식물 소매,G21901,꽃집,G47851,화초 및 식물 소매업,50,제주특별자치도,50130,서귀포시,50130253,남원읍,5013025324,남원읍,5.01303E+18,1,대지,938,5,제주특별자치도 서귀포시 남원읍 수망리 938-5,5.01303E+11,제주특별자치도 서귀포시 남원읍 서성로,986,94,5.01303E+24,,제주특별자치도 서귀포시 남원읍 서성로 986-94,699949,63615,,,,126.7027994,33.33173204
MA0101202411A0083237,오리움;둘,,G2,소매,G219,식물 소매,G21901,꽃집,G47851,화초 및 식물 소매업,50,제주특별자치도,50130,서귀포시,50130580,서홍동,5013010600,서홍동,5.01301E+18,1,대지,442,8,제주특별자치도 서귀포시 서홍동 442-8,5.01303E+11,제주특별자치도 서귀포시 일주동로,8710,,5.01301E+24,,제주특별자치도 서귀포시 일주동로 8710,697851,63584,,1,,126.5578739,33.25286848
MA0101202411A0161970,미미플라워,2호점,G2,소매,G219,식물 소매,G21901,꽃집,G47851,화초 및 식물 소매업,50,제주특별자치도,50110,제주시,50110540,이도2동,5011010400,이도이동,5.01101E+18,1,대지,1772,22,제주특별자치도 제주시 이도이동 1772-22,5.01105E+11,제주특별자치도 제주시 신성로13길,3,,5.01101E+24,,제주특별자치도 제주시 신성로13길 3,690827,63207,,1,,126.5290739,33.49968677
MA0101202411A0161319,식물인간,,G2,소매,G219,식물 소매,G21901,꽃집,G47851,화초 및 식물 소매업,50,제주특별자치도,50130,서귀포시,50130590,대륜동,5013010300,서호동,5.01301E+18,1,대지,678,,제주특별자치도 서귀포시 서호동 678,5.01303E+11,제주특별자치도 서귀포시 호근서호로,184,,5.01301E+24,,제주특별자치도 서귀포시 호근서호로 184,697845,63569,,1,,126.5212875,33.25754772
MA0101202411A0157582,?트,,G2,소매,G219,식물 소매,G21901,꽃집,G47851,화초 및 식물 소매업,50,제주특별자치도,50110,제주시,50110610,삼양동,5011011400,삼양이동,5.01101E+18,1,대지,2101,2,제주특별자치도 제주시 삼양이동 2101-2,5.01105E+11,제주특별자치도 제주시 설촌로10길,4,,5.01101E+24,,제주특별자치도 제주시 설촌로10길 4,690071,63319,,,,126.5818397,33.52384945
MA0101202411A0164088,너는내식물,,G2,소매,G219,식물 소매,G21901,꽃집,G47851,화초 및 식물 소매업,50,제주특별자치도,50110,제주시,50110259,조천읍,5011025922,조천읍,5.01103E+18,1,대지,2852,16,제주특별자치도 제주시 조천읍 와흘리 2852-16,5.01105E+11,제주특별자치도 제주시 조천읍 와흘전2길,51,40,5.01103E+24,,제주특별자치도 제주시 조천읍 와흘전2길 51-40,695968,63345,,,,126.6412911,33.46927283
MA0101202411A0140142,풀노바,,G2,소매,G219,식물 소매,G21901,꽃집,G47851,화초 및 식물 소매업,50,제주특별자치도,50110,제주시,50110590,건입동,5011010700,건입동,5.01101E+18,1,대지,89,1,제주특별자치도 제주시 건입동 89-1,5.01103E+11,제주특별자치도 제주시 천수동로,49,,5.01101E+24,,제주특별자치도 제주시 천수동로 49,690800,63307,,,,126.5471923,33.50664248
MA0101202501A0030202,플레르보야주,,G2,소매,G219,식물 소매,G21901,꽃집,G47851,화초 및 식물 소매업,50,제주특별자치도,50110,제주시,50110650,연동,5011013700,연동,5.01101E+18,1,대지,1400,1,제주특별자치도 제주시 연동 1400-1,5.01105E+11,제주특별자치도 제주시 과원북4길,69,,5.01101E+24,,제주특별자치도 제주시 과원북4길 69,690817,63138,,1,,126.4888915,33.48122522
MA0101202502A0014259,제주플라워,,G2,소매,G219,식물 소매,G21901,꽃집,G47851,화초 및 식물 소매업,50,제주특별자치도,50110,제주시,50110550,삼도1동,5011010500,삼도일동,5.01101E+18,1,대지,500,3,제주특별자치도 제주시 삼도일동 500-3,5.01103E+11,제주특별자치도 제주시 전농로,26,1,5.01101E+24,,제주특별자치도 제주시 전농로 26-1,690811,63175,,,,126.5159946,33.50430661
MA0101202501A0061772,우아하나,,G2,소매,G219,식물 소매,G21901,꽃집,G47851,화초 및 식물 소매업,50,제주특별자치도,50110,제주시,50110660,노형동,5011012200,노형동,5.01101E+18,1,대지,745,14,제주특별자치도 제주시 노형동 745-14,5.01105E+11,제주특별자치도 제주시 진군3길,26,1,5.01101E+24,고강주택,제주특별자치도 제주시 진군3길 26-1,690802,63089,,,,126.4781959,33.4778087
MA0101202412A0058284,신천,,G2,소매,G219,식물 소매,G21901,꽃집,G47851,화초 및 식물 소매업,50,제주특별자치도,50110,제주시,50110650,연동,5011013700,연동,5.01101E+18,1,대지,283,31,제주특별자치도 제주시 연동 283-31,5.01105E+11,제주특별자치도 제주시 은남3길,29,,5.01101E+24,,제주특별자치도 제주시 은남3길 29,690814,63123,,3,,126.4927303,33.48714643
MA0101202412A0084884,플라워랩은,,G2,소매,G219,식물 소매,G21901,꽃집,G47851,화초 및 식물 소매업,50,제주특별자치도,50110,제주시,50110660,노형동,5011012200,노형동,5.01101E+18,1,대지,759,3,제주특별자치도 제주시 노형동 759-3,5.01105E+11,제주특별자치도 제주시 한라대학로,79,,5.01101E+24,,제주특별자치도 제주시 한라대학로 79,690802,63089,,1,,126.4787737,33.47653087
MA0101202502A0088376,스튜디오피크,,G2,소매,G219,식물 소매,G21901,꽃집,G47851,화초 및 식물 소매업,50,제주특별자치도,50110,제주시,50110259,조천읍,5011025926,조천읍,5.01103E+18,1,대지,1774,2,제주특별자치도 제주시 조천읍 대흘리 1774-2,5.01103E+11,제주특별자치도 제주시 조천읍 함대로,514,1,5.01103E+24,,제주특별자치도 제주시 조천읍 함대로 514-1,695962,63343,,1,,126.658458,33.50007491
MA0101202502A0097275,초록맨션,,G2,소매,G219,식물 소매,G21901,꽃집,G47851,화초 및 식물 소매업,50,제주특별자치도,50110,제주시,50110520,일도2동,5011010200,일도이동,5.01101E+18,1,대지,342,23,제주특별자치도 제주시 일도이동 342-23,5.01105E+11,제주특별자치도 제주시 동광로15길,14,,5.01101E+24,,제주특별자치도 제주시 동광로15길 14,690833,63273,,1,,126.5373456,33.50647988
MA0101202502A0085115,뜰아래,,G2,소매,G219,식물 소매,G21901,꽃집,G47851,화초 및 식물 소매업,50,제주특별자치도,50130,서귀포시,50130320,표선면,5013032021,표선면,5.01303E+18,1,대지,890,,제주특별자치도 서귀포시 표선면 표선리 890,5.01305E+11,제주특별자치도 서귀포시 표선면 표선백사로110번길,13,,5.01303E+24,,제주특별자치도 서귀포시 표선면 표선백사로110번길 13,699914,63629,,,,126.8377617,33.32422763
MA0103202302C0037258,미래꽃집,,G2,소매,G219,식물 소매,G21901,꽃집,G47852,화초 및 식물 소매업,50,제주특별자치도,50110,제주시,50110590,건입동,5011010700,건입동,5.01101E+18,1,대지,1044,44,제주특별자치도 제주시 건입동 1044-44,5.01105E+11,제주특별자치도 제주시 동문로21길,4,11,5.01101E+24,,제주특별자치도 제주시 동문로21길 4-11,690800,63282,,3,,126.5380129,33.51458767
MA0103202411C0044936,제주진플라워,,G2,소매,G219,식물 소매,G21901,꽃집,G47851,화초 및 식물 소매업,50,제주특별자치도,50110,제주시,50110670,외도동,5011012300,외도일동,5.01101E+18,1,대지,447,1,제주특별자치도 제주시 외도일동 447-1,5.01105E+11,제주특별자치도 제주시 절물1길,10,,5.01101E+24,,제주특별자치도 제주시 절물1길 10,690191,63070,,,,126.4314433,33.49189324
MA0103202411C0044940,플로제,,G2,소매,G219,식물 소매,G21901,꽃집,G47851,화초 및 식물 소매업,50,제주특별자치도,50130,서귀포시,50130590,대륜동,5013010300,서호동,5.01301E+18,1,대지,1457,1,제주특별자치도 서귀포시 서호동 1457-1,5.01305E+11,제주특별자치도 서귀포시 신동로67번길,32,,5.01301E+24,,제주특별자치도 서귀포시 신동로67번길 32,697847,63565,,1,,126.511549,33.25650002
MA0103202408C0002619,원꽃집,,G2,소매,G219,식물 소매,G21901,꽃집,G47851,화초 및 식물 소매업,50,제주특별자치도,50110,제주시,50110520,일도2동,5011010200,일도이동,5.01101E+18,1,대지,1029,186,제주특별자치도 제주시 일도이동 1029-186,5.01105E+11,제주특별자치도 제주시 삼성로11길,15,,5.01101E+24,,제주특별자치도 제주시 삼성로11길 15,690834,63268,,,,126.5322284,33.50944493
