상가업소번호,상호명,지점명,상권업종대분류코드,상권업종대분류명,상권업종중분류코드,상권업종중분류명,상권업종소분류코드,상권업종소분류명,표준산업분류코드,표준산업분류명,시도코드,시도명,시군구코드,시군구명,행정동코드,행정동명,법정동코드,법정동명,지번코드,대지구분코드,대지구분명,지번본번지,지번부번지,지번주소,도로명코드,도로명,건물본번지,건물부번지,건물관리번호,건물명,도로명주소,구우편번호,신우편번호,동정보,층정보,호정보,경도,위도
MA010120220700010906,서산아미농원,,G2,소매,G219,식물 소매,G21901,꽃집,G47851,화초 및 식물 소매업,44,충청남도,44210,서산시,44210310,인지면,4421031025,인지면,4.42103E+18,1,대지,50,4,충청남도 서산시 인지면 애정리 50-4,4.42105E+11,충청남도 서산시 인지면 관청터길,60,2,4.42103E+24,,충청남도 서산시 인지면 관청터길 60-2,356882,32016,,,,126.4188589,36.72840395
MA010120220800087974,왕지농원,,G2,소매,G219,식물 소매,G21901,꽃집,G47851,화초 및 식물 소매업,44,충청남도,44800,홍성군,44800330,홍동면,4480033030,홍동면,4.48003E+18,1,대지,191,,충청남도 홍성군 홍동면 수란리 191,4.48005E+11,충청남도 홍성군 홍동면 광금북로114번길,245,,4.48003E+24,,충청남도 홍성군 홍동면 광금북로114번길 245,350814,32283,,,,126.7409276,36.58236787
MA010120220801315695,온아한꽃,,G2,소매,G219,식물 소매,G21901,꽃집,G47851,화초 및 식물 소매업,44,충청남도,44133,천안시 서북구,44133590,부성2동,4413310500,성성동,4.41331E+18,1,대지,937,,충청남도 천안시 서북구 성성동 937,4.41333E+11,충청남도 천안시 서북구 성성6로,48,50,4.41331E+24,,충청남도 천안시 서북구 성성6로 48-50,331300,31078,,,,127.1251172,36.84125183
MA010120220801539433,플로레스,,G2,소매,G219,식물 소매,G21901,꽃집,G47851,화초 및 식물 소매업,44,충청남도,44210,서산시,44210550,석남동,4421010900,예천동,4.42101E+18,1,대지,103,6,충청남도 서산시 예천동 103-6,4.42103E+11,충청남도 서산시 예천1로,24,,4.42101E+24,JS빌딩,충청남도 서산시 예천1로 24,356807,31998,,1,,126.4470796,36.76910631
MA010120220802274132,가덕원,,G2,소매,G219,식물 소매,G21901,꽃집,G47851,화초 및 식물 소매업,44,충청남도,44230,논산시,44230350,부적면,4423035032,부적면,4.42304E+18,1,대지,667,10,충청남도 논산시 부적면 아호리 667-10,4.42303E+11,충청남도 논산시 부적면 부적로,126,,4.42304E+24,,충청남도 논산시 부적면 부적로 126,320863,32917,,,,127.1301879,36.2034545
MA010120220802414209,다니엘조경,,G2,소매,G219,식물 소매,G21901,꽃집,G47851,화초 및 식물 소매업,44,충청남도,44200,아산시,44200410,신창면,4420041021,신창면,4.42004E+18,1,대지,636,8,충청남도 아산시 신창면 오목리 636-8,4.42003E+11,충청남도 아산시 신창면 서부남로,648,,4.42004E+24,,충청남도 아산시 신창면 서부남로 648,336885,31535,,,,126.9280458,36.7940507
MA010120220802687708,마리플라워,,G2,소매,G219,식물 소매,G21901,꽃집,G47851,화초 및 식물 소매업,44,충청남도,44210,서산시,44210550,석남동,4421010900,예천동,4.42101E+18,1,대지,381,8,충청남도 서산시 예천동 381-8,4.42103E+11,충청남도 서산시 동서1로,221,,4.42101E+24,,충청남도 서산시 동서1로 221,356807,32005,,,,126.4464313,36.76736416
MA010120220802791709,초록에서법인,,G2,소매,G219,식물 소매,G21901,꽃집,G47851,화초 및 식물 소매업,44,충청남도,44270,당진시,44270530,당진3동,4427010400,원당동,4.42701E+18,1,대지,446,6,충청남도 당진시 원당동 446-6,4.42703E+11,충청남도 당진시 구봉로,12,40,4.42701E+24,,충청남도 당진시 구봉로 12-40,343090,31767,,,,126.6479531,36.90813538
MA010120220802915270,플라워데얼비,,G2,소매,G219,식물 소매,G21901,꽃집,G47851,화초 및 식물 소매업,44,충청남도,44825,태안군,44825250,태안읍,4482525022,태안읍,4.48253E+18,1,대지,724,10,충청남도 태안군 태안읍 남문리 724-10,4.48255E+11,충청남도 태안군 태안읍 군청12길,7,,4.48253E+24,,충청남도 태안군 태안읍 군청12길 7,357901,32144,,1,,126.3013629,36.74419937
MA010120220802958151,고운꽃,,G2,소매,G219,식물 소매,G21901,꽃집,G47851,화초 및 식물 소매업,44,충청남도,44200,아산시,44200253,배방읍,4420025331,배방읍,4.42003E+18,1,대지,1767,,충청남도 아산시 배방읍 장재리 1767,4.42003E+11,충청남도 아산시 배방읍 광장로,210,,4.42003E+24,요진와이시티,충청남도 아산시 배방읍 광장로 210,336747,31471,,1,,127.109247,36.79738344
MA010120220802936149,가야플라워,,G2,소매,G219,식물 소매,G21901,꽃집,G47851,화초 및 식물 소매업,44,충청남도,44230,논산시,44230510,취암동,4423010500,취암동,4.42301E+18,1,대지,1045,1,충청남도 논산시 취암동 1045-1,4.42303E+11,충청남도 논산시 계백로,1000,,4.42301E+24,,충청남도 논산시 계백로 1000,320802,32974,,,,127.0883223,36.20304212
MA010120220803017962,바이에이치,,G2,소매,G219,식물 소매,G21901,꽃집,G47851,화초 및 식물 소매업,44,충청남도,44200,아산시,44200330,탕정면,4420033025,탕정면,4.42003E+18,1,대지,254,,충청남도 아산시 탕정면 매곡리 254,4.42003E+11,충청남도 아산시 탕정면 선문로,136,,4.42003E+24,,충청남도 아산시 탕정면 선문로 136,336843,31465,,,,127.0857088,36.7901758
MA010120220803010480,금강송림조경,,G2,소매,G219,식물 소매,G21901,꽃집,G47851,화초 및 식물 소매업,44,충청남도,44150,공주시,44150550,금학동,4415012400,검상동,4.41501E+18,1,대지,100,,충청남도 공주시 검상동 100,4.41505E+11,충청남도 공주시 윗나루길,68,,4.41501E+24,,충청남도 공주시 윗나루길 68,314080,32598,,,,127.0705097,36.43888508
MA010120220803125157,메종드화,,G2,소매,G219,식물 소매,G21901,꽃집,G47851,화초 및 식물 소매업,44,충청남도,44200,아산시,44200253,배방읍,4420025325,배방읍,4.42003E+18,1,대지,1860,,충청남도 아산시 배방읍 북수리 1860,4.42005E+11,충청남도 아산시 배방읍 월천6길,54,12,4.42003E+24,,충청남도 아산시 배방읍 월천6길 54-12,336851,31494,,1,,127.0784616,36.76980658
MA010120220803107451,영심이flower,,G2,소매,G219,식물 소매,G21901,꽃집,G47851,화초 및 식물 소매업,44,충청남도,44210,서산시,44210510,부춘동,4421010100,읍내동,4.42101E+18,1,대지,501,3,충청남도 서산시 읍내동 501-3,4.42103E+11,충청남도 서산시 문화로,40,,4.42101E+24,,충청남도 서산시 문화로 40,356837,31974,,2,,126.448982,36.7850016
MA010120220803175282,하하꽃,,G2,소매,G219,식물 소매,G21901,꽃집,G47851,화초 및 식물 소매업,44,충청남도,44131,천안시 동남구,44131530,원성1동,4413110700,원성동,4.41311E+18,1,대지,133,31,충청남도 천안시 동남구 원성동 133-31,4.41313E+11,충청남도 천안시 동남구 버들로,99,4,4.41311E+24,,충청남도 천안시 동남구 버들로 99-4,330951,31127,,1,,127.157413,36.80662892
MA010120220803296562,꽃라임,,G2,소매,G219,식물 소매,G21901,꽃집,G47851,화초 및 식물 소매업,44,충청남도,44200,아산시,44200253,배방읍,4420025325,배방읍,4.42003E+18,1,대지,1221,,충청남도 아산시 배방읍 북수리 1221,4.42003E+11,충청남도 아산시 배방읍 배방로,219,17,4.42003E+24,,충청남도 아산시 배방읍 배방로 219-17,336851,31492,,1,,127.0702085,36.77182123
MA010120220803300635,어써플라워스튜디오,,G2,소매,G219,식물 소매,G21901,꽃집,G47851,화초 및 식물 소매업,44,충청남도,44200,아산시,44200330,탕정면,4420033025,탕정면,4.42003E+18,1,대지,1387,,충청남도 아산시 탕정면 매곡리 1387,4.42003E+11,충청남도 아산시 탕정면 한들물빛5로,36,,4.42003E+24,한들물빛도시지웰시티센트럴푸르지오3단지,충청남도 아산시 탕정면 한들물빛5로 36,336843,31465,,2,,127.0868579,36.78584061
MA010120220803300011,행복한정원,,G2,소매,G219,식물 소매,G21901,꽃집,G47851,화초 및 식물 소매업,44,충청남도,44200,아산시,44200610,온양5동,4420010600,신인동,4.42001E+18,1,대지,231,,충청남도 아산시 신인동 231,4.42005E+11,충청남도 아산시 신인길,2,10,4.42001E+24,,충청남도 아산시 신인길 2-10,336140,31559,,,,126.9820044,36.75224125
MA010120220803314824,대치농원,,G2,소매,G219,식물 소매,G21901,꽃집,G47851,화초 및 식물 소매업,44,충청남도,44790,청양군,44790320,대치면,4479032021,대치면,4.47903E+18,1,대지,40,,충청남도 청양군 대치면 주정리 40,4.47903E+11,충청남도 청양군 대치면 주전로,252,78,4.47903E+24,,충청남도 청양군 대치면 주전로 252-78,345892,33345,,,,126.8434181,36.45757449
MA010120220803387249,사계절꽃&다육아트,,G2,소매,G219,식물 소매,G21901,꽃집,G47851,화초 및 식물 소매업,44,충청남도,44131,천안시 동남구,44131540,원성2동,4413110700,원성동,4.41311E+18,1,대지,556,11,충청남도 천안시 동남구 원성동 556-11,4.41315E+11,충청남도 천안시 동남구 원거리11길,28,,4.41311E+24,,충청남도 천안시 동남구 원거리11길 28,330954,31186,,,,127.1560911,36.80134114
MA010120220803332945,나인즈,,G2,소매,G219,식물 소매,G21901,꽃집,G47851,화초 및 식물 소매업,44,충청남도,44800,홍성군,44800256,홍북읍,4480025625,홍북읍,4.48003E+18,1,대지,588,,충청남도 홍성군 홍북읍 신경리 588,4.48005E+11,충청남도 홍성군 홍북읍 청사로150번길,20,,4.48003E+24,광명헤세드,충청남도 홍성군 홍북읍 청사로150번길 20,350831,32256,,,,126.6807627,36.65703425
MA010120220803511489,화가의정원,,G2,소매,G219,식물 소매,G21901,꽃집,G47851,화초 및 식물 소매업,44,충청남도,44825,태안군,44825250,태안읍,4482525022,태안읍,4.48253E+18,1,대지,502,8,충청남도 태안군 태안읍 남문리 502-8,4.48253E+11,충청남도 태안군 태안읍 중앙로,24,,4.48253E+24,,충청남도 태안군 태안읍 중앙로 24,357901,32142,,,,126.2924537,36.75601423
MA010120220803538491,월산,,G2,소매,G219,식물 소매,G21901,꽃집,G47851,화초 및 식물 소매업,44,충청남도,44150,공주시,44150550,금학동,4415011000,금학동,4.41501E+18,1,대지,59,3,충청남도 공주시 금학동 59-3,4.41503E+11,충청남도 공주시 우금티로,605,,4.41501E+24,,충청남도 공주시 우금티로 605,314080,32603,,,,127.1278325,36.44331626
MA010120220803826488,새순,,G2,소매,G219,식물 소매,G21901,꽃집,G47851,화초 및 식물 소매업,44,충청남도,44133,천안시 서북구,44133567,불당2동,4413310800,불당동,4.41331E+18,1,대지,1792,,충청남도 천안시 서북구 불당동 1792,4.41335E+11,충청남도 천안시 서북구 불당30길,28,1,4.41331E+24,,충청남도 천안시 서북구 불당30길 28-1,331230,31156,,,,127.1039862,36.80968833
MA010120220804151573,늘푸른정원;홍주꽃차갤러리,,G2,소매,G219,식물 소매,G21901,꽃집,G47851,화초 및 식물 소매업,44,충청남도,44800,홍성군,44800330,홍동면,4480033029,홍동면,4.48003E+18,1,대지,216,,충청남도 홍성군 홍동면 신기리 216,4.48005E+11,충청남도 홍성군 홍동면 충절로501번길,29,93,4.48003E+24,,충청남도 홍성군 홍동면 충절로501번길 29-93,350814,32283,,,,126.7159834,36.56837036
MA010120220804126209,수림,,G2,소매,G219,식물 소매,G21901,꽃집,G47851,화초 및 식물 소매업,44,충청남도,44131,천안시 동남구,44131580,청룡동,4413111100,청당동,4.41311E+18,1,대지,436,,충청남도 천안시 동남구 청당동 436,4.41313E+11,충청남도 천안시 동남구 풍세로,770,,4.41311E+24,청당마을신도브래뉴아파트,충청남도 천안시 동남구 풍세로 770,330849,31202,,5,,127.1418769,36.77994849
MA010120220804286069,스쿠터꽃,,G2,소매,G219,식물 소매,G21901,꽃집,G47851,화초 및 식물 소매업,44,충청남도,44200,아산시,44200330,탕정면,4420033024,탕정면,4.42003E+18,1,대지,463,,충청남도 아산시 탕정면 호산리 463,4.42005E+11,충청남도 아산시 탕정면 탕정면로213번길,7,5,4.42003E+24,,충청남도 아산시 탕정면 탕정면로213번길 7-5,336843,31457,,,,127.0743219,36.80926903
MA010120220804545399,플라워부티크,,G2,소매,G219,식물 소매,G21901,꽃집,G47851,화초 및 식물 소매업,44,충청남도,44200,아산시,44200410,신창면,4420041022,신창면,4.42004E+18,1,대지,243,1,충청남도 아산시 신창면 읍내리 243-1,4.42003E+11,충청남도 아산시 신창면 온천대로,847,,4.42004E+24,,충청남도 아산시 신창면 온천대로 847,336885,31536,,,,126.93551,36.77812327
MA010120220804819838,로즈마리플라워,,G2,소매,G219,식물 소매,G21901,꽃집,G47851,화초 및 식물 소매업,44,충청남도,44825,태안군,44825250,태안읍,4482525033,태안읍,4.48253E+18,1,대지,256,13,충청남도 태안군 태안읍 삭선리 256-13,4.48253E+11,충청남도 태안군 태안읍 원이로,376,,4.48253E+24,,충청남도 태안군 태안읍 원이로 376,357907,32134,,,,126.2721023,36.78719555
MA010120220804928337,산마리노,,G2,소매,G219,식물 소매,G21901,꽃집,G47851,화초 및 식물 소매업,44,충청남도,44250,계룡시,44250510,금암동,4425010100,금암동,4.42501E+18,1,대지,162,5,충청남도 계룡시 금암동 162-5,4.42503E+11,충청남도 계룡시 서금암로,11,,4.42501E+24,,충청남도 계룡시 서금암로 11,321900,32826,,,,127.2521262,36.27314744
MA010120220804979836,영인플라워스튜디오,,G2,소매,G219,식물 소매,G21901,꽃집,G47851,화초 및 식물 소매업,44,충청남도,44133,천안시 서북구,44133567,불당2동,4413310800,불당동,4.41331E+18,1,대지,1647,,충청남도 천안시 서북구 불당동 1647,4.41335E+11,충청남도 천안시 서북구 불당31길,40,,4.41331E+24,,충청남도 천안시 서북구 불당31길 40,331230,31156,,,,127.1052984,36.81048016
MA010120220805019757,송지플라워,,G2,소매,G219,식물 소매,G21901,꽃집,G47851,화초 및 식물 소매업,44,충청남도,44200,아산시,44200253,배방읍,4420025331,배방읍,4.42003E+18,1,대지,1490,,충청남도 아산시 배방읍 장재리 1490,4.42005E+11,충청남도 아산시 배방읍 설화고길,10,3,4.42003E+24,,충청남도 아산시 배방읍 설화고길 10-3,336857,31467,,,,127.0920939,36.78926992
MA010120220805159606,지트랜드,,G2,소매,G219,식물 소매,G21901,꽃집,G47851,화초 및 식물 소매업,44,충청남도,44210,서산시,44210330,팔봉면,4421033028,팔봉면,4.42103E+18,1,대지,243,,충청남도 서산시 팔봉면 어송리 243,4.42103E+11,충청남도 서산시 팔봉면 팔봉1로,16,,4.42103E+24,,충청남도 서산시 팔봉면 팔봉1로 16,356984,31924,,,,126.3680701,36.7855995
MA010120220805273531,항아리식물원,,G2,소매,G219,식물 소매,G21901,꽃집,G47851,화초 및 식물 소매업,44,충청남도,44230,논산시,44230253,연무읍,4423025323,연무읍,4.42303E+18,1,대지,487,2,충청남도 논산시 연무읍 금곡리 487-2,4.42302E+11,충청남도 논산시 연무읍 득안대로,557,,4.42303E+24,,충청남도 논산시 연무읍 득안대로 557,320832,33007,,,,127.0982601,36.12051066
MA010120220805266679,고연경매장,,G2,소매,G219,식물 소매,G21901,꽃집,G47851,화초 및 식물 소매업,44,충청남도,44200,아산시,44200370,영인면,4420037021,영인면,4.42004E+18,1,대지,242,2,충청남도 아산시 영인면 아산리 242-2,4.42003E+11,충청남도 아산시 영인면 아산로,987,,4.42004E+24,휴게동,충청남도 아산시 영인면 아산로 987,336823,31432,,1,,126.9545613,36.85961042
MA010120220805347680,성서플라워,,G2,소매,G219,식물 소매,G21901,꽃집,G47851,화초 및 식물 소매업,44,충청남도,44200,아산시,44200570,온양1동,4420010100,온천동,4.42001E+18,1,대지,219,14,충청남도 아산시 온천동 219-14,4.42005E+11,충청남도 아산시 시장길,8,,4.42001E+24,,충청남도 아산시 시장길 8,336011,31513,,,,127.001602,36.78343029
MA010120220805653862,옥주플라워,,G2,소매,G219,식물 소매,G21901,꽃집,G47851,화초 및 식물 소매업,44,충청남도,44200,아산시,44200580,온양2동,4420010100,온천동,4.42001E+18,1,대지,131,107,충청남도 아산시 온천동 131-107,4.42005E+11,충청남도 아산시 온화로65번길,30,,4.42001E+24,,충청남도 아산시 온화로65번길 30,336818,31573,,1,,127.0052539,36.77965451
MA010120220805801069,금천당,,G2,소매,G219,식물 소매,G21901,꽃집,G47851,화초 및 식물 소매업,44,충청남도,44710,금산군,44710250,금산읍,4471025024,금산읍,4.47103E+18,1,대지,176,48,충청남도 금산군 금산읍 상리 176-48,4.47103E+11,충청남도 금산군 금산읍 금산로,1459,,4.47103E+24,,충청남도 금산군 금산읍 금산로 1459,312802,32737,,,,127.4886206,36.10415286
MA010120220805826798,항아리다육,,G2,소매,G219,식물 소매,G21901,꽃집,G47851,화초 및 식물 소매업,44,충청남도,44710,금산군,44710380,복수면,4471038027,복수면,4.47104E+18,1,대지,170,3,충청남도 금산군 복수면 구례리 170-3,4.47105E+11,충청남도 금산군 복수면 적선길,7,16,4.47104E+24,,충청남도 금산군 복수면 적선길 7-16,312922,32701,,,,127.3810613,36.20461295
MA010120220805882242,제인이좋아,,G2,소매,G219,식물 소매,G21901,꽃집,G47851,화초 및 식물 소매업,44,충청남도,44150,공주시,44150590,월송동,4415012100,금흥동,4.41501E+18,1,대지,115,2,충청남도 공주시 금흥동 115-2,4.41505E+11,충청남도 공주시 연수원길,88,,4.41501E+24,,충청남도 공주시 연수원길 88,314120,32589,,2,,127.1484407,36.48812525
MA010120220805957957,인플라워,,G2,소매,G219,식물 소매,G21901,꽃집,G47851,화초 및 식물 소매업,44,충청남도,44250,계룡시,44250315,엄사면,4425031521,엄사면,4.42503E+18,1,대지,313,2,충청남도 계룡시 엄사면 엄사리 313-2,4.42503E+11,충청남도 계룡시 엄사면 번영로,87,,4.42503E+24,,충청남도 계룡시 엄사면 번영로 87,321931,32808,,,,127.2361648,36.28731067
MA010120220805941571,청유리원관광농원,,G2,소매,G219,식물 소매,G21901,꽃집,G47851,화초 및 식물 소매업,44,충청남도,44230,논산시,44230400,가야곡면,4423040029,가야곡면,4.42304E+18,1,대지,57,11,충청남도 논산시 가야곡면 종연리 57-11,4.42305E+11,충청남도 논산시 가야곡면 원앙종연1길,71,9,4.42304E+24,,충청남도 논산시 가야곡면 원앙종연1길 71-9,320842,33017,,1,,127.1485967,36.16536616
MA010120220805980127,구항조경자재,,G2,소매,G219,식물 소매,G21901,꽃집,G47851,화초 및 식물 소매업,44,충청남도,44800,홍성군,44800390,구항면,4480039022,구항면,4.48004E+18,1,대지,683,2,충청남도 홍성군 구항면 오봉리 683-2,4.48005E+11,충청남도 홍성군 구항면 구항길,82,,4.48004E+24,,충청남도 홍성군 구항면 구항길 82,350842,32213,,,,126.607811,36.58782559
MA010120220805924052,지산플라워,,G2,소매,G219,식물 소매,G21901,꽃집,G47851,화초 및 식물 소매업,44,충청남도,44250,계룡시,44250315,엄사면,4425031521,엄사면,4.42503E+18,1,대지,172,2,충청남도 계룡시 엄사면 엄사리 172-2,4.42503E+11,충청남도 계룡시 엄사면 엄사중앙로,109,,4.42503E+24,,충청남도 계룡시 엄사면 엄사중앙로 109,321931,32803,,,,127.2426419,36.29045186
MA010120220805917547,한솔원,,G2,소매,G219,식물 소매,G21901,꽃집,G47851,화초 및 식물 소매업,44,충청남도,44230,논산시,44230350,부적면,4423035024,부적면,4.42304E+18,1,대지,422,5,충청남도 논산시 부적면 외성리 422-5,4.42303E+11,충청남도 논산시 부적면 계백로,1660,1,4.42304E+24,,충청남도 논산시 부적면 계백로 1660-1,320861,32916,,,,127.1582157,36.21220745
MA010120220805924625,논산와송,,G2,소매,G219,식물 소매,G21901,꽃집,G47851,화초 및 식물 소매업,44,충청남도,44230,논산시,44230350,부적면,4423035021,부적면,4.42304E+18,1,대지,37,8,충청남도 논산시 부적면 마구평리 37-8,4.42305E+11,충청남도 논산시 부적면 남마구평길,27,7,4.42304E+24,,충청남도 논산시 부적면 남마구평길 27-7,320862,32917,,1,,127.1310169,36.21382643
MA010120220806020986,당나루화원,,G2,소매,G219,식물 소매,G21901,꽃집,G47851,화초 및 식물 소매업,44,충청남도,44270,당진시,44270510,당진1동,4427010100,읍내동,4.42701E+18,1,대지,1324,,충청남도 당진시 읍내동 1324,4.42705E+11,충청남도 당진시 청룡길,140,,4.48303E+24,,충청남도 당진시 청룡길 140,343925,31776,,1,,126.6335171,36.88823165
MA010120220806063045,꽃들고과일들고,,G2,소매,G219,식물 소매,G21901,꽃집,G47851,화초 및 식물 소매업,44,충청남도,44131,천안시 동남구,44131590,신안동,4413111900,안서동,4.41311E+18,1,대지,506,31,충청남도 천안시 동남구 안서동 506-31,4.41315E+11,충청남도 천안시 동남구 천호지길,4,,4.41311E+24,,충청남도 천안시 동남구 천호지길 4,330997,31116,,,,127.1733766,36.83415361
MA010120220806061037,풍년토탈농기업,,G2,소매,G219,식물 소매,G21901,꽃집,G47851,화초 및 식물 소매업,44,충청남도,44133,천안시 서북구,44133250,성환읍,4413325024,성환읍,4.41333E+18,1,대지,771,,충청남도 천안시 서북구 성환읍 율금리 771,4.41335E+11,충청남도 천안시 서북구 성환읍 율금1길,203,,4.41333E+24,,충청남도 천안시 서북구 성환읍 율금1길 203,331807,31009,,,,127.1011852,36.90381104
MA010120220806061700,나산조경,,G2,소매,G219,식물 소매,G21901,꽃집,G47851,화초 및 식물 소매업,44,충청남도,44133,천안시 서북구,44133250,성환읍,4413325030,성환읍,4.41333E+18,1,대지,455,2,충청남도 천안시 서북구 성환읍 복모리 455-2,4.41332E+11,충청남도 천안시 서북구 성환읍 천안대로,2441,,4.41333E+24,,충청남도 천안시 서북구 성환읍 천안대로 2441,331801,31001,,,,127.1295594,36.95565037
MA010120220806071231,에덴꽃화원,,G2,소매,G219,식물 소매,G21901,꽃집,G47851,화초 및 식물 소매업,44,충청남도,44200,아산시,44200590,온양3동,4420011400,권곡동,4.42001E+18,1,대지,443,54,충청남도 아산시 권곡동 443-54,4.42003E+11,충청남도 아산시 충무로,83,,4.42001E+24,충무,충청남도 아산시 충무로 83,336030,31511,,,,127.0061059,36.78855749
MA010120220806056294,한솔크린,,G2,소매,G219,식물 소매,G21901,꽃집,G47851,화초 및 식물 소매업,44,충청남도,44131,천안시 동남구,44131530,원성1동,4413111200,유량동,4.41311E+18,1,대지,373,,충청남도 천안시 동남구 유량동 373,4.41313E+11,충청남도 천안시 동남구 유량로,129,,4.41311E+24,,충청남도 천안시 동남구 유량로 129,330071,31068,,1,,127.1731751,36.80940947
MA010120220806061917,꽃사랑플라워,,G2,소매,G219,식물 소매,G21901,꽃집,G47851,화초 및 식물 소매업,44,충청남도,44133,천안시 서북구,44133560,백석동,4413310300,백석동,4.41331E+18,1,대지,806,,충청남도 천안시 서북구 백석동 806,4.41335E+11,충청남도 천안시 서북구 백석5길,24,6,4.41331E+24,,충청남도 천안시 서북구 백석5길 24-6,331980,31159,,,,127.1265223,36.82311105
MA010120220806005801,꽃사랑,,G2,소매,G219,식물 소매,G21901,꽃집,G47851,화초 및 식물 소매업,44,충청남도,44810,예산군,44810250,예산읍,4481025024,예산읍,4.48103E+18,1,대지,203,1,충청남도 예산군 예산읍 주교리 203-1,4.48103E+11,충청남도 예산군 예산읍 주교로,56,,4.48103E+24,,충청남도 예산군 예산읍 주교로 56,340808,32430,,,,126.8322701,36.68646851
MA010120220806008112,그래스팩토리,,G2,소매,G219,식물 소매,G21901,꽃집,G47851,화초 및 식물 소매업,44,충청남도,44270,당진시,44270253,송악읍,4427025334,송악읍,4.42703E+18,2,산,93,1,충청남도 당진시 송악읍 중흥리 산93-1,4.42703E+11,충청남도 당진시 송악읍 신평로,1519,44,4.48303E+24,창고,충청남도 당진시 송악읍 신평로 1519-44,343826,31728,,,,126.740869,36.93275792
MA010120220806134963,법인탑블루베리,,G2,소매,G219,식물 소매,G21901,꽃집,G47851,화초 및 식물 소매업,44,충청남도,44131,천안시 동남구,44131590,신안동,4413111900,안서동,4.41311E+18,1,대지,144,8,충청남도 천안시 동남구 안서동 144-8,4.41315E+11,충청남도 천안시 동남구 각원사길,146,,4.41311E+24,,충청남도 천안시 동남구 각원사길 146,330996,31066,,2,,127.1867093,36.83111471
MA010120220806096904,올식스,,G2,소매,G219,식물 소매,G21901,꽃집,G47851,화초 및 식물 소매업,44,충청남도,44200,아산시,44200400,도고면,4420040036,도고면,4.42004E+18,1,대지,42,1,충청남도 아산시 도고면 기곡리 42-1,4.42003E+11,충청남도 아산시 도고면 도고온천로,122,5,4.42004E+24,,충청남도 아산시 도고면 도고온천로 122-5,336912,31547,,,,126.8913603,36.76407878
MA010120220806101778,메리골드,,G2,소매,G219,식물 소매,G21901,꽃집,G47851,화초 및 식물 소매업,44,충청남도,44133,천안시 서북구,44133566,불당1동,4413310800,불당동,4.41331E+18,1,대지,1383,,충청남도 천안시 서북구 불당동 1383,4.41333E+11,충청남도 천안시 서북구 공원로,248,,4.41331E+24,,충청남도 천안시 서북구 공원로 248,331985,31169,,,,127.1068303,36.79995381
MA010120220806099067,플라워앤아트,,G2,소매,G219,식물 소매,G21901,꽃집,G47851,화초 및 식물 소매업,44,충청남도,44200,아산시,44200600,온양4동,4420011700,점양동,4.42001E+18,1,대지,121,7,충청남도 아산시 점양동 121-7,4.42005E+11,충청남도 아산시 신정호길,186,9,4.42001E+24,,충청남도 아산시 신정호길 186-9,336110,31558,,,,126.9697027,36.76753075
MA010120220806116369,골드플라워,,G2,소매,G219,식물 소매,G21901,꽃집,G47851,화초 및 식물 소매업,44,충청남도,44131,천안시 동남구,44131250,목천읍,4413125038,목천읍,4.41313E+18,1,대지,152,2,충청남도 천안시 동남구 목천읍 소사리 152-2,4.41315E+11,충청남도 천안시 동남구 목천읍 소사3길,11,7,4.41313E+24,,충청남도 천안시 동남구 목천읍 소사3길 11-7,330844,31227,,1,,127.1733444,36.73531948
MA010120220806101143,라&풍요플라워,,G2,소매,G219,식물 소매,G21901,꽃집,G47851,화초 및 식물 소매업,44,충청남도,44200,아산시,44200310,송악면,4420031023,송악면,4.42003E+18,1,대지,26,4,충청남도 아산시 송악면 외암리 26-4,4.42005E+11,충청남도 아산시 송악면 외암로1096번길,127,,4.42003E+24,,충청남도 아산시 송악면 외암로1096번길 127,336921,31557,,,,127.0245068,36.7328029
MA010120220806150003,LG꽃화원,,G2,소매,G219,식물 소매,G21901,꽃집,G47851,화초 및 식물 소매업,44,충청남도,44770,서천군,44770253,서천읍,4477025321,서천읍,4.47703E+18,1,대지,175,6,충청남도 서천군 서천읍 군사리 175-6,4.47703E+11,충청남도 서천군 서천읍 서천로,12,,4.47703E+24,,충청남도 서천군 서천읍 서천로 12,325802,33645,,,,126.6981285,36.07527208
MA010120220806153851,삼산종묘사,,G2,소매,G219,식물 소매,G21901,꽃집,G47851,화초 및 식물 소매업,44,충청남도,44770,서천군,44770253,서천읍,4477025321,서천읍,4.47703E+18,1,대지,686,1,충청남도 서천군 서천읍 군사리 686-1,4.47703E+11,충청남도 서천군 서천읍 충절로,42,,4.47703E+24,,충청남도 서천군 서천읍 충절로 42,325802,33647,,,,126.6868171,36.07502677
MA010120220806087009,청아화원,,G2,소매,G219,식물 소매,G21901,꽃집,G47851,화초 및 식물 소매업,44,충청남도,44200,아산시,44200600,온양4동,4420010300,방축동,4.42001E+18,1,대지,136,16,충청남도 아산시 방축동 136-16,4.42003E+11,충청남도 아산시 온천대로,1362,,4.42001E+24,,충청남도 아산시 온천대로 1362,336070,31504,,,,126.9896709,36.78453822
MA010120220806077265,한터조경,,G2,소매,G219,식물 소매,G21901,꽃집,G47851,화초 및 식물 소매업,44,충청남도,44200,아산시,44200370,영인면,4420037022,영인면,4.42004E+18,1,대지,199,3,충청남도 아산시 영인면 상성리 199-3,4.42005E+11,충청남도 아산시 영인면 상성길,6,,4.42004E+24,,충청남도 아산시 영인면 상성길 6,336821,31432,,,,126.9432334,36.86211963
MA010120220806081420,조이조경화원,,G2,소매,G219,식물 소매,G21901,꽃집,G47851,화초 및 식물 소매업,44,충청남도,44133,천안시 서북구,44133310,입장면,4413331021,입장면,4.41333E+18,1,대지,203,,충청남도 천안시 서북구 입장면 하장리 203,4.41333E+11,충청남도 천안시 서북구 입장면 입장로,128,,4.41333E+24,,충청남도 천안시 서북구 입장면 입장로 128,331827,31055,,,,127.2221097,36.91248626
MA010120220806092129,꽃사랑화원,,G2,소매,G219,식물 소매,G21901,꽃집,G47851,화초 및 식물 소매업,44,충청남도,44200,아산시,44200580,온양2동,4420010100,온천동,4.42001E+18,1,대지,199,65,충청남도 아산시 온천동 199-65,4.42003E+11,충청남도 아산시 남산로,59,,4.42001E+24,,충청남도 아산시 남산로 59,336818,31570,,,,126.9999552,36.78021332
MA010120220806201328,신동원조경,,G2,소매,G219,식물 소매,G21901,꽃집,G47851,화초 및 식물 소매업,44,충청남도,44150,공주시,44150340,반포면,4415034021,반포면,4.41503E+18,1,대지,128,3,충청남도 공주시 반포면 공암리 128-3,4.41505E+11,충청남도 공주시 반포면 수실1길,82,6,4.41503E+24,,충청남도 공주시 반포면 수실1길 82-6,314921,32622,,2,,127.254911,36.40378561
MA010120220806169962,록플라워,,G2,소매,G219,식물 소매,G21901,꽃집,G47851,화초 및 식물 소매업,44,충청남도,44200,아산시,44200360,둔포면,4420036021,둔포면,4.42004E+18,1,대지,429,3,충청남도 아산시 둔포면 둔포리 429-3,4.42003E+11,충청남도 아산시 둔포면 충무로,1748,,4.42004E+24,,충청남도 아산시 둔포면 충무로 1748,336872,31403,,,,127.0352653,36.92761077
MA010120220806310789,꽃을사랑하는사람들,,G2,소매,G219,식물 소매,G21901,꽃집,G47851,화초 및 식물 소매업,44,충청남도,44825,태안군,44825250,태안읍,4482525032,태안읍,4.48253E+18,1,대지,576,3,충청남도 태안군 태안읍 산후리 576-3,4.48255E+11,충청남도 태안군 태안읍 지막골길,20,14,4.48253E+24,,충청남도 태안군 태안읍 지막골길 20-14,357904,32135,,,,126.2919393,36.77907026
MA010120220806293151,식물과사람들,,G2,소매,G219,식물 소매,G21901,꽃집,G47851,화초 및 식물 소매업,44,충청남도,44210,서산시,44210525,동문1동,4421010400,온석동,4.42101E+18,1,대지,162,1,충청남도 서산시 온석동 162-1,4.42105E+11,충청남도 서산시 잠곡2길,28,20,4.42101E+24,,충청남도 서산시 잠곡2길 28-20,356060,31966,,,,126.4708531,36.78944422
MA010120220806383881,청암,,G2,소매,G219,식물 소매,G21901,꽃집,G47851,화초 및 식물 소매업,44,충청남도,44825,태안군,44825250,태안읍,4482525028,태안읍,4.48253E+18,1,대지,969,,충청남도 태안군 태안읍 상옥리 969,4.48253E+11,충청남도 태안군 태안읍 상도로,148,14,4.48253E+24,,충청남도 태안군 태안읍 상도로 148-14,357909,32139,,,,126.3211928,36.76576936
MA010120220806406015,별바구니,,G2,소매,G219,식물 소매,G21901,꽃집,G47851,화초 및 식물 소매업,44,충청남도,44770,서천군,44770250,장항읍,4477025028,장항읍,4.47703E+18,1,대지,349,4,충청남도 서천군 장항읍 옥남리 349-4,4.47703E+11,충청남도 서천군 장항읍 장천로,251,,4.47703E+24,,충청남도 서천군 장항읍 장천로 251,325904,33658,,,,126.6715225,36.03419657
MA010120220806434286,꽃이야나무야아산대전,,G2,소매,G219,식물 소매,G21901,꽃집,G47851,화초 및 식물 소매업,44,충청남도,44200,아산시,44200253,배방읍,4420025325,배방읍,4.42003E+18,1,대지,157,6,충청남도 아산시 배방읍 북수리 157-6,4.42005E+11,충청남도 아산시 배방읍 호서로315번길,89,22,4.42003E+24,,충청남도 아산시 배방읍 호서로315번길 89-22,336851,31496,,,,127.0707153,36.76257546
MA010120220806568805,일랑일랑,,G2,소매,G219,식물 소매,G21901,꽃집,G47851,화초 및 식물 소매업,44,충청남도,44800,홍성군,44800256,홍북읍,4480025625,홍북읍,4.48003E+18,1,대지,583,,충청남도 홍성군 홍북읍 신경리 583,4.48003E+11,충청남도 홍성군 홍북읍 의향로,273,,4.48003E+24,세움펠리피아,충청남도 홍성군 홍북읍 의향로 273,350831,32256,,1,,126.6812932,36.65859462
MA010120220806517878,신성이앤지,,G2,소매,G219,식물 소매,G21901,꽃집,G47851,화초 및 식물 소매업,44,충청남도,44210,서산시,44210540,수석동,4421010700,석림동,4.42101E+18,1,대지,283,1,충청남도 서산시 석림동 283-1,4.42103E+11,충청남도 서산시 중앙로,251,6,4.42101E+24,,충청남도 서산시 중앙로 251-6,356816,32002,,1,,126.474013,36.76968799
MA010120220806611647,올라플라워앤파티,,G2,소매,G219,식물 소매,G21901,꽃집,G47851,화초 및 식물 소매업,44,충청남도,44133,천안시 서북구,44133567,불당2동,4413310800,불당동,4.41331E+18,1,대지,1837,,충청남도 천안시 서북구 불당동 1837,4.41335E+11,충청남도 천안시 서북구 불당34길,7,,4.41331E+24,세인트타워,충청남도 천안시 서북구 불당34길 7,331230,31156,,,,127.1056728,36.80564987
MA010120220806653573,우리봄날,,G2,소매,G219,식물 소매,G21901,꽃집,G47851,화초 및 식물 소매업,44,충청남도,44133,천안시 서북구,44133256,직산읍,4413325626,직산읍,4.41333E+18,1,대지,72,1,충청남도 천안시 서북구 직산읍 삼은리 72-1,4.41333E+11,충청남도 천안시 서북구 직산읍 직산로,33,,4.41333E+24,,충청남도 천안시 서북구 직산읍 직산로 33,331816,31037,,,,127.1530777,36.88052521
MA010120220806594827,채움원예종묘법인,,G2,소매,G219,식물 소매,G21901,꽃집,G47851,화초 및 식물 소매업,44,충청남도,44133,천안시 서북구,44133256,직산읍,4413325626,직산읍,4.41333E+18,1,대지,216,4,충청남도 천안시 서북구 직산읍 삼은리 216-4,4.41332E+11,충청남도 천안시 서북구 직산읍 천안대로,1557,,4.41333E+24,,충청남도 천안시 서북구 직산읍 천안대로 1557,331816,31037,,,,127.1455151,36.87924614
MA010120220806589442,무이플라워,,G2,소매,G219,식물 소매,G21901,꽃집,G47851,화초 및 식물 소매업,44,충청남도,44133,천안시 서북구,44133567,불당2동,4413310800,불당동,4.41331E+18,1,대지,1686,,충청남도 천안시 서북구 불당동 1686,4.41335E+11,충청남도 천안시 서북구 불당32길,40,,4.41331E+24,,충청남도 천안시 서북구 불당32길 40,331230,31156,,1,,127.1041533,36.80898532
MA010120220806733229,마리의정원,,G2,소매,G219,식물 소매,G21901,꽃집,G47851,화초 및 식물 소매업,44,충청남도,44210,서산시,44210310,인지면,4421031021,인지면,4.42103E+18,1,대지,347,21,충청남도 서산시 인지면 둔당리 347-21,4.42103E+11,충청남도 서산시 인지면 마산로,425,,4.42103E+24,,충청남도 서산시 인지면 마산로 425,356881,32015,,,,126.4186185,36.75285886
MA010120220806782399,플로라,,G2,소매,G219,식물 소매,G21901,꽃집,G47851,화초 및 식물 소매업,44,충청남도,44250,계룡시,44250315,엄사면,4425031521,엄사면,4.42503E+18,1,대지,182,3,충청남도 계룡시 엄사면 엄사리 182-3,4.42503E+11,충청남도 계룡시 엄사면 엄사중앙로,94,,4.42503E+24,계룡프라자,충청남도 계룡시 엄사면 엄사중앙로 94,321931,32804,,1,,127.2422586,36.28892062
MA010120220806840327,꽃작업실튤,,G2,소매,G219,식물 소매,G21901,꽃집,G47851,화초 및 식물 소매업,44,충청남도,44210,서산시,44210360,성연면,4421036024,성연면,4.42104E+18,1,대지,520,5,충청남도 서산시 성연면 왕정리 520-5,4.42103E+11,충청남도 서산시 성연면 성연3로,8,4,4.42104E+24,,충청남도 서산시 성연면 성연3로 8-4,356851,31930,,,,126.4534471,36.82037238
MA010120220806966594,꽃다락,,G2,소매,G219,식물 소매,G21901,꽃집,G47851,화초 및 식물 소매업,44,충청남도,44210,서산시,44210535,동문2동,4421010200,동문동,4.42101E+18,1,대지,257,3,충청남도 서산시 동문동 257-3,4.42103E+11,충청남도 서산시 중앙로,102,,4.42101E+24,꽃다락,충청남도 서산시 중앙로 102,356801,31991,,,,126.4606979,36.77733283
MA010120220806968709,효민조경,,G2,소매,G219,식물 소매,G21901,꽃집,G47851,화초 및 식물 소매업,44,충청남도,44825,태안군,44825250,태안읍,4482525022,태안읍,4.48253E+18,1,대지,559,,충청남도 태안군 태안읍 남문리 559,4.48255E+11,충청남도 태안군 태안읍 서문1길,41,7,4.48253E+24,,충청남도 태안군 태안읍 서문1길 41-7,357901,32142,,,,126.2951723,36.75630069
MA010120220806988496,화목더플라워,,G2,소매,G219,식물 소매,G21901,꽃집,G47851,화초 및 식물 소매업,44,충청남도,44131,천안시 동남구,44131590,신안동,4413111800,신부동,4.41311E+18,1,대지,452,7,충청남도 천안시 동남구 신부동 452-7,4.41313E+11,충청남도 천안시 동남구 중앙로,212,,4.41311E+24,,충청남도 천안시 동남구 중앙로 212,330993,31123,,1,,127.1532209,36.81737563
MA010120220807117259,플레르제이,,G2,소매,G219,식물 소매,G21901,꽃집,G47851,화초 및 식물 소매업,44,충청남도,44200,아산시,44200330,탕정면,4420033026,탕정면,4.42003E+18,1,대지,81,1,충청남도 아산시 탕정면 갈산리 81-1,4.42003E+11,충청남도 아산시 탕정면 탕정면로,116,,4.42003E+24,,충청남도 아산시 탕정면 탕정면로 116,336841,31460,,,,127.0684093,36.80176632
MA010120220807094285,이랑이랑,,G2,소매,G219,식물 소매,G21901,꽃집,G47851,화초 및 식물 소매업,44,충청남도,44770,서천군,44770330,기산면,4477033033,기산면,4.47703E+18,1,대지,71,5,충청남도 서천군 기산면 황사리 71-5,4.47703E+11,충청남도 서천군 기산면 충절로,866,,4.47703E+24,,충청남도 서천군 기산면 충절로 866,325831,33627,,,,126.7768126,36.07243435
MA010120220807071196,특수환경,,G2,소매,G219,식물 소매,G21901,꽃집,G47851,화초 및 식물 소매업,44,충청남도,44200,아산시,44200600,온양4동,4420010300,방축동,4.42001E+18,1,대지,428,10,충청남도 아산시 방축동 428-10,4.42003E+11,충청남도 아산시 신정로,666,,4.42001E+24,,충청남도 아산시 신정로 666,336070,31565,,,,126.9843398,36.77680607
MA010120220807417003,인엠,,G2,소매,G219,식물 소매,G21901,꽃집,G47851,화초 및 식물 소매업,44,충청남도,44133,천안시 서북구,44133566,불당1동,4413310800,불당동,4.41331E+18,1,대지,1013,,충청남도 천안시 서북구 불당동 1013,4.41335E+11,충청남도 천안시 서북구 불당9길,2,,4.41331E+24,,충청남도 천안시 서북구 불당9길 2,331984,31164,,1,,127.1064766,36.80347747
MA010120220807495199,퍼니비플라워,봉명점,G2,소매,G219,식물 소매,G21901,꽃집,G47851,화초 및 식물 소매업,44,충청남도,44131,천안시 동남구,44131550,봉명동,4413111300,봉명동,4.41311E+18,1,대지,42,19,충청남도 천안시 동남구 봉명동 42-19,4.41313E+11,충청남도 천안시 동남구 봉정로,35,,4.41311E+24,,충청남도 천안시 동남구 봉정로 35,330930,31151,,1,,127.1394136,36.80536279
MA010120220807776120,테이블가드닝,,G2,소매,G219,식물 소매,G21901,꽃집,G47851,화초 및 식물 소매업,44,충청남도,44133,천안시 서북구,44133540,쌍용2동,4413310700,쌍용동,4.41331E+18,1,대지,1603,,충청남도 천안시 서북구 쌍용동 1603,4.41335E+11,충청남도 천안시 서북구 월봉5길,39,2,4.41331E+24,,충청남도 천안시 서북구 월봉5길 39-2,331955,31174,,,,127.1172835,36.79177087
MA010120220807890173,정감아뜰리에,,G2,소매,G219,식물 소매,G21901,꽃집,G47851,화초 및 식물 소매업,44,충청남도,44131,천안시 동남구,44131540,원성2동,4413110700,원성동,4.41311E+18,1,대지,564,12,충청남도 천안시 동남구 원성동 564-12,4.41313E+11,충청남도 천안시 동남구 충절로,207,,4.41311E+24,,충청남도 천안시 동남구 충절로 207,330954,31187,,1,,127.1594619,36.80033643
MA010120220808024189,더그루플라워,,G2,소매,G219,식물 소매,G21901,꽃집,G47851,화초 및 식물 소매업,44,충청남도,44133,천안시 서북구,44133520,성정2동,4413310200,성정동,4.41331E+18,1,대지,646,10,충청남도 천안시 서북구 성정동 646-10,4.41335E+11,충청남도 천안시 서북구 서부16길,11,1,4.41331E+24,,충청남도 천안시 서북구 서부16길 11-1,331973,31134,,,,127.1379999,36.8231073
MA010120220808052691,태안꽃화원,,G2,소매,G219,식물 소매,G21901,꽃집,G47851,화초 및 식물 소매업,44,충청남도,44825,태안군,44825250,태안읍,4482525021,태안읍,4.48253E+18,1,대지,315,41,충청남도 태안군 태안읍 동문리 315-41,4.48253E+11,충청남도 태안군 태안읍 샘골로,19,1,4.48253E+24,,충청남도 태안군 태안읍 샘골로 19-1,357905,32143,,,,126.3018592,36.75121285
MA010120220808049388,하동훈약용식물꽃농원,,G2,소매,G219,식물 소매,G21901,꽃집,G47851,화초 및 식물 소매업,44,충청남도,44150,공주시,44150370,정안면,4415037039,정안면,4.41504E+18,1,대지,356,1,충청남도 공주시 정안면 월산리 356-1,4.41503E+11,충청남도 공주시 정안면 정안마곡사로,348,9,4.41504E+24,,충청남도 공주시 정안면 정안마곡사로 348-9,314823,32510,,,,127.0879956,36.62436684
MA010120220808002330,꽃뜨락,,G2,소매,G219,식물 소매,G21901,꽃집,G47851,화초 및 식물 소매업,44,충청남도,44210,서산시,44210390,해미면,4421039030,해미면,4.42104E+18,1,대지,52,,충청남도 서산시 해미면 동암리 52,4.42103E+11,충청남도 서산시 해미면 관터로,224,18,4.42104E+24,,충청남도 서산시 해미면 관터로 224-18,356821,31953,,,,126.5429623,36.73416266
MA010120220808098834,꼼지꼼지화원,,G2,소매,G219,식물 소매,G21901,꽃집,G47851,화초 및 식물 소매업,44,충청남도,44133,천안시 서북구,44133250,성환읍,4413325023,성환읍,4.41333E+18,1,대지,304,3,충청남도 천안시 서북구 성환읍 매주리 304-3,4.41333E+11,충청남도 천안시 서북구 성환읍 연암율금로,507,,4.41333E+24,써니하우스,충청남도 천안시 서북구 성환읍 연암율금로 507,331803,31018,,,,127.1336484,36.9117897
MA010120220808128513,유현조경,,G2,소매,G219,식물 소매,G21901,꽃집,G47851,화초 및 식물 소매업,44,충청남도,44770,서천군,44770253,서천읍,4477025333,서천읍,4.47703E+18,1,대지,325,2,충청남도 서천군 서천읍 남산리 325-2,4.47703E+11,충청남도 서천군 서천읍 남산로,215,,4.47703E+24,,충청남도 서천군 서천읍 남산로 215,325801,33648,,,,126.6812831,36.06813588
MA010120220808275357,어울림,,G2,소매,G219,식물 소매,G21901,꽃집,G47851,화초 및 식물 소매업,44,충청남도,44133,천안시 서북구,44133530,쌍용1동,4413310700,쌍용동,4.41331E+18,1,대지,889,2,충청남도 천안시 서북구 쌍용동 889-2,4.41333E+11,충청남도 천안시 서북구 봉명로,34,,4.41331E+24,무정빌딩,충청남도 천안시 서북구 봉명로 34,331949,31155,,1,,127.1322449,36.80718221
MA010120220808359743,부자농원,,G2,소매,G219,식물 소매,G21901,꽃집,G47851,화초 및 식물 소매업,44,충청남도,44825,태안군,44825320,남면,4482532022,남면,4.48253E+18,1,대지,399,,충청남도 태안군 남면 몽산리 399,4.48255E+11,충청남도 태안군 남면 동산길,112,,4.48253E+24,,충청남도 태안군 남면 동산길 112,357954,32152,,,,126.2744878,36.68735005
MA010120220808380021,우리전통옹기,,G2,소매,G219,식물 소매,G21901,꽃집,G47851,화초 및 식물 소매업,44,충청남도,44150,공주시,44150340,반포면,4415034028,반포면,4.41503E+18,1,대지,539,,충청남도 공주시 반포면 마암리 539,4.41503E+11,충청남도 공주시 반포면 창벽로,731,,4.41503E+24,,충청남도 공주시 반포면 창벽로 731,314922,32620,,,,127.2112153,36.43427631
MA010120220808320559,꽃그리고날STUDIO,,G2,소매,G219,식물 소매,G21901,꽃집,G47851,화초 및 식물 소매업,44,충청남도,44270,당진시,44270510,당진1동,4427010100,읍내동,4.42701E+18,1,대지,787,,충청남도 당진시 읍내동 787,4.42703E+11,충청남도 당진시 무수동로,238,,4.48303E+24,동현빌딩,충청남도 당진시 무수동로 238,343925,31772,,2,,126.6373166,36.89607381
MA010120220808436009,아믈,,G2,소매,G219,식물 소매,G21901,꽃집,G47851,화초 및 식물 소매업,44,충청남도,44131,천안시 동남구,44131570,신방동,4413111600,신방동,4.41311E+18,1,대지,1677,,충청남도 천안시 동남구 신방동 1677,4.41313E+11,충청남도 천안시 동남구 통정12로,89,,4.41311E+24,,충청남도 천안시 동남구 통정12로 89,330260,31205,,1,,127.1369059,36.77523247
MA010120220808389573,은정원,,G2,소매,G219,식물 소매,G21901,꽃집,G47851,화초 및 식물 소매업,44,충청남도,44133,천안시 서북구,44133250,성환읍,4413325021,성환읍,4.41333E+18,1,대지,449,328,충청남도 천안시 서북구 성환읍 성환리 449-328,4.41333E+11,충청남도 천안시 서북구 성환읍 성환1로,217,,4.41333E+24,,충청남도 천안시 서북구 성환읍 성환1로 217,331805,31011,,,,127.1280527,36.91409366
MA010120220808392235,대곡광업,,G2,소매,G219,식물 소매,G21901,꽃집,G47851,화초 및 식물 소매업,44,충청남도,44210,서산시,44210390,해미면,4421039023,해미면,4.42104E+18,2,산,56,6,충청남도 서산시 해미면 대곡리 산56-6,4.42103E+11,충청남도 서산시 해미면 한서1로,46,1,4.42104E+24,,충청남도 서산시 해미면 한서1로 46-1,356824,31962,,,,126.5897053,36.68964647
MA010120220808507732,민플라워,,G2,소매,G219,식물 소매,G21901,꽃집,G47851,화초 및 식물 소매업,44,충청남도,44133,천안시 서북구,44133510,성정1동,4413310200,성정동,4.41331E+18,1,대지,1048,,충청남도 천안시 서북구 성정동 1048,4.41335E+11,충청남도 천안시 서북구 개목3길,30,,4.41331E+24,,충청남도 천안시 서북구 개목3길 30,331970,31140,,,,127.1328789,36.81741812
MA010120220808534734,현플레르,,G2,소매,G219,식물 소매,G21901,꽃집,G47851,화초 및 식물 소매업,44,충청남도,44230,논산시,44230253,연무읍,4423025324,연무읍,4.42303E+18,1,대지,901,1,충청남도 논산시 연무읍 동산리 901-1,4.42303E+11,충청남도 논산시 연무읍 안심로,134,,4.42303E+24,,충청남도 논산시 연무읍 안심로 134,320833,33008,,,,127.0999085,36.13276581
MA010120220808469513,로사플라워,,G2,소매,G219,식물 소매,G21901,꽃집,G47851,화초 및 식물 소매업,44,충청남도,44770,서천군,44770253,서천읍,4477025322,서천읍,4.47703E+18,1,대지,297,,충청남도 서천군 서천읍 사곡리 297,4.47703E+11,충청남도 서천군 서천읍 사곡로,28,,4.47703E+24,,충청남도 서천군 서천읍 사곡로 28,325806,33640,,,,126.685884,36.08354985
MA010120220808580680,세븐,,G2,소매,G219,식물 소매,G21901,꽃집,G47851,화초 및 식물 소매업,44,충청남도,44131,천안시 동남구,44131560,일봉동,4413111500,용곡동,4.41311E+18,1,대지,298,2,충청남도 천안시 동남구 용곡동 298-2,4.41315E+11,충청남도 천안시 동남구 용곡6길,44,,4.41311E+24,,충청남도 천안시 동남구 용곡6길 44,330250,31201,,,,127.1439865,36.78785774
MA010120220808551621,풀잎스튜디오,,G2,소매,G219,식물 소매,G21901,꽃집,G47851,화초 및 식물 소매업,44,충청남도,44131,천안시 동남구,44131510,중앙동,4413110400,사직동,4.41311E+18,1,대지,190,2,충청남도 천안시 동남구 사직동 190-2,4.41313E+11,충청남도 천안시 동남구 사직로,10,2,4.41311E+24,한일기물,충청남도 천안시 동남구 사직로 10-2,330040,31129,,2,,127.1497369,36.80095282
MA010120220808694977,꽃집,,G2,소매,G219,식물 소매,G21901,꽃집,G47851,화초 및 식물 소매업,44,충청남도,44200,아산시,44200360,둔포면,4420036021,둔포면,4.42004E+18,1,대지,449,6,충청남도 아산시 둔포면 둔포리 449-6,4.42005E+11,충청남도 아산시 둔포면 둔포면로25번길,20,33,4.42004E+24,,충청남도 아산시 둔포면 둔포면로25번길 20-33,336872,31403,,,,127.0382524,36.93055642
MA010120220808731009,카페프랑플라워,,G2,소매,G219,식물 소매,G21901,꽃집,G47851,화초 및 식물 소매업,44,충청남도,44810,예산군,44810253,삽교읍,4481025326,삽교읍,4.48103E+18,1,대지,862,,충청남도 예산군 삽교읍 목리 862,4.48103E+11,충청남도 예산군 삽교읍 예학로,81,,4.48103E+24,,충청남도 예산군 삽교읍 예학로 81,340904,32416,,,,126.6768159,36.66477332
MA010120220809096473,허브버킷법인,,G2,소매,G219,식물 소매,G21901,꽃집,G47851,화초 및 식물 소매업,44,충청남도,44810,예산군,44810350,응봉면,4481035023,응봉면,4.48104E+18,1,대지,569,,충청남도 예산군 응봉면 건지화리 569,4.48103E+11,충청남도 예산군 응봉면 응봉서로,186,8,4.48104E+24,,충청남도 예산군 응봉면 응봉서로 186-8,340831,32447,,,,126.7645623,36.62935728
MA010120220809403709,태은,,G2,소매,G219,식물 소매,G21901,꽃집,G47851,화초 및 식물 소매업,44,충청남도,44133,천안시 서북구,44133590,부성2동,4413310400,두정동,4.41331E+18,1,대지,664,,충청남도 천안시 서북구 두정동 664,4.41335E+11,충청남도 천안시 서북구 늘푸른5길,22,,4.41331E+24,골드프라자,충청남도 천안시 서북구 늘푸른5길 22,331958,31099,,4,,127.1296566,36.82733387
MA010120220809679229,썬플라워,,G2,소매,G219,식물 소매,G21901,꽃집,G47851,화초 및 식물 소매업,44,충청남도,44210,서산시,44210550,석남동,4421011000,죽성동,4.42101E+18,1,대지,74,1,충청남도 서산시 죽성동 74-1,4.42103E+11,충청남도 서산시 남부순환로,767,,4.42101E+24,삼성프라자,충청남도 서산시 남부순환로 767,356760,32007,,2,,126.4475202,36.74672485
MA010120220809659117,또바기다육,,G2,소매,G219,식물 소매,G21901,꽃집,G47851,화초 및 식물 소매업,44,충청남도,44210,서산시,44210525,동문1동,4421010500,잠홍동,4.42101E+18,1,대지,44,15,충청남도 서산시 잠홍동 44-15,4.42103E+11,충청남도 서산시 서해로,3789,,4.42101E+24,,충청남도 서산시 서해로 3789,356040,32002,,,,126.4900977,36.78482451
MA010120220809759770,세신조경,,G2,소매,G219,식물 소매,G21901,꽃집,G47851,화초 및 식물 소매업,44,충청남도,44790,청양군,44790250,청양읍,4479025021,청양읍,4.47903E+18,1,대지,273,6,충청남도 청양군 청양읍 읍내리 273-6,4.47905E+11,충청남도 청양군 청양읍 중앙로18길,7,1,4.47903E+24,,충청남도 청양군 청양읍 중앙로18길 7-1,345804,33324,,,,126.8046227,36.45588618
MA010120220809789204,플라워에코하우스,,G2,소매,G219,식물 소매,G21901,꽃집,G47851,화초 및 식물 소매업,44,충청남도,44131,천안시 동남구,44131570,신방동,4413111600,신방동,4.41311E+18,1,대지,140,,충청남도 천안시 동남구 신방동 140,4.41313E+11,충청남도 천안시 동남구 충무로,48,84,4.41311E+24,,충청남도 천안시 동남구 충무로 48-84,330939,31178,,,,127.125709,36.78498588
MA010120220810006405,너를보다플라워,,G2,소매,G219,식물 소매,G21901,꽃집,G47851,화초 및 식물 소매업,44,충청남도,44131,천안시 동남구,44131510,중앙동,4413110100,대흥동,4.41311E+18,1,대지,30,7,충청남도 천안시 동남구 대흥동 30-7,4.41313E+11,충청남도 천안시 동남구 버들로,2,,4.41311E+24,천안역지하도상가,충청남도 천안시 동남구 버들로 2,330010,31129,,,,127.1491024,36.80891043
MA010120220810004329,마녀의화원,,G2,소매,G219,식물 소매,G21901,꽃집,G47851,화초 및 식물 소매업,44,충청남도,44131,천안시 동남구,44131530,원성1동,4413110700,원성동,4.41311E+18,1,대지,454,2,충청남도 천안시 동남구 원성동 454-2,4.41315E+11,충청남도 천안시 동남구 원성4길,55,,4.41311E+24,,충청남도 천안시 동남구 원성4길 55,330952,31126,,,,127.161401,36.81129133
MA010120220809975481,라비앙로제,,G2,소매,G219,식물 소매,G21901,꽃집,G47851,화초 및 식물 소매업,44,충청남도,44210,서산시,44210550,석남동,4421010900,예천동,4.42101E+18,1,대지,1273,1,충청남도 서산시 예천동 1273-1,4.42103E+11,충청남도 서산시 호수공원12로,26,,4.42101E+24,,충청남도 서산시 호수공원12로 26,356808,31996,,1,,126.4486075,36.77315936
MA010120220810046207,예꽃집,,G2,소매,G219,식물 소매,G21901,꽃집,G47842,기념품; 관광 민예품 및 장식용품 소매업,44,충청남도,44131,천안시 동남구,44131320,광덕면,4413132029,광덕면,4.41313E+18,1,대지,147,2,충청남도 천안시 동남구 광덕면 행정리 147-2,4.41313E+11,충청남도 천안시 동남구 광덕면 광덕로,499,,4.41313E+24,,충청남도 천안시 동남구 광덕면 광덕로 499,330922,31223,,,,127.1541347,36.68600929
MA010120220810178303,착한꽃집,,G2,소매,G219,식물 소매,G21901,꽃집,G47851,화초 및 식물 소매업,44,충청남도,44200,아산시,44200400,도고면,4420040036,도고면,4.42004E+18,1,대지,265,10,충청남도 아산시 도고면 기곡리 265-10,4.42005E+11,충청남도 아산시 도고면 도고면로110번길,11,,4.42004E+24,,충청남도 아산시 도고면 도고면로110번길 11,336912,31551,,,,126.8802598,36.75769722
MA010120220810278632,솔플레르,,G2,소매,G219,식물 소매,G21901,꽃집,G47851,화초 및 식물 소매업,44,충청남도,44710,금산군,44710250,금산읍,4471025024,금산읍,4.47103E+18,1,대지,11,27,충청남도 금산군 금산읍 상리 11-27,4.47103E+11,충청남도 금산군 금산읍 오리정로,68,,4.47103E+24,쏠플레르,충청남도 금산군 금산읍 오리정로 68,312802,32732,,2,,127.4841711,36.10837957
MA010120220810599304,서산꽃마을,,G2,소매,G219,식물 소매,G21901,꽃집,G47851,화초 및 식물 소매업,44,충청남도,44210,서산시,44210535,동문2동,4421010200,동문동,4.42101E+18,1,대지,990,1,충청남도 서산시 동문동 990-1,4.42103E+11,충청남도 서산시 효행1로,18,16,4.42101E+24,,충청남도 서산시 효행1로 18-16,356804,31983,,,,126.4539693,36.77840149
MA010120220810538754,뉴스타건설조경,,G2,소매,G219,식물 소매,G21901,꽃집,G47851,화초 및 식물 소매업,44,충청남도,44250,계룡시,44250510,금암동,4425010100,금암동,4.42501E+18,1,대지,162,5,충청남도 계룡시 금암동 162-5,4.42503E+11,충청남도 계룡시 서금암로,11,,4.42501E+24,,충청남도 계룡시 서금암로 11,321900,32826,,,,127.2521262,36.27314744
MA010120220810673300,너에게꽃이다,,G2,소매,G219,식물 소매,G21901,꽃집,G47851,화초 및 식물 소매업,44,충청남도,44200,아산시,44200330,탕정면,4420033022,탕정면,4.42003E+18,1,대지,944,8,충청남도 아산시 탕정면 명암리 944-8,4.42005E+11,충청남도 아산시 탕정면 탕정면로22번길,15,14,4.42003E+24,,충청남도 아산시 탕정면 탕정면로22번길 15-14,336841,31456,,,,127.0610549,36.79721069
MA010120220810804811,오가조경,,G2,소매,G219,식물 소매,G21901,꽃집,G47851,화초 및 식물 소매업,44,충청남도,44810,예산군,44810400,오가면,4481040032,오가면,4.48104E+18,1,대지,16,,충청남도 예산군 오가면 오촌리 16,4.48105E+11,충청남도 예산군 오가면 오촌방죽안길,39,19,4.48104E+24,,충청남도 예산군 오가면 오촌방죽안길 39-19,340914,32424,,,,126.7984907,36.72105542
MA010120220811024352,블로썸,,G2,소매,G219,식물 소매,G21901,꽃집,G47851,화초 및 식물 소매업,44,충청남도,44710,금산군,44710250,금산읍,4471025025,금산읍,4.47103E+18,1,대지,636,4,충청남도 금산군 금산읍 아인리 636-4,4.47105E+11,충청남도 금산군 금산읍 북사직7길,5,,4.47103E+24,,충청남도 금산군 금산읍 북사직7길 5,312805,32729,,,,127.48008,36.10953155
MA010120220811219596,너에게로꽃이다,,G2,소매,G219,식물 소매,G21901,꽃집,G47851,화초 및 식물 소매업,44,충청남도,44270,당진시,44270530,당진3동,4427010400,원당동,4.42701E+18,1,대지,322,7,충청남도 당진시 원당동 322-7,4.42705E+11,충청남도 당진시 원당골길,30,,4.48303E+24,청구빌딩,충청남도 당진시 원당골길 30,343090,31763,,1,,126.6564729,36.90743945
MA010120220811982037,신도Flower&Garden,,G2,소매,G219,식물 소매,G21901,꽃집,G47851,화초 및 식물 소매업,44,충청남도,44250,계룡시,44250315,엄사면,4425031521,엄사면,4.42503E+18,1,대지,162,1,충청남도 계룡시 엄사면 엄사리 162-1,4.42503E+11,충청남도 계룡시 엄사면 계룡대로,518,,4.42503E+24,,충청남도 계룡시 엄사면 계룡대로 518,321931,32801,,1,,127.2450536,36.28922133
MA010120220811677537,꽃길플라워,,G2,소매,G219,식물 소매,G21901,꽃집,G47851,화초 및 식물 소매업,44,충청남도,44210,서산시,44210540,수석동,4421010700,석림동,4.42101E+18,1,대지,519,22,충청남도 서산시 석림동 519-22,4.42103E+11,충청남도 서산시 석림4로,64,,4.42101E+24,,충청남도 서산시 석림4로 64,356818,32000,,,,126.4656963,36.772147
MA010120220811815512,연산현무암잔디,,G2,소매,G219,식물 소매,G21901,꽃집,G47851,화초 및 식물 소매업,44,충청남도,44230,논산시,44230360,연산면,4423036021,연산면,4.42304E+18,1,대지,78,4,충청남도 논산시 연산면 연산리 78-4,4.42303E+11,충청남도 논산시 연산면 황산벌로,1479,,4.42304E+24,,충청남도 논산시 연산면 황산벌로 1479,320875,32911,,,,127.218143,36.21125708
MA010120220811827425,어바웃타임,,G2,소매,G219,식물 소매,G21901,꽃집,G47851,화초 및 식물 소매업,44,충청남도,44133,천안시 서북구,44133520,성정2동,4413310200,성정동,4.41331E+18,1,대지,667,5,충청남도 천안시 서북구 성정동 667-5,4.41335E+11,충청남도 천안시 서북구 서부6길,21,,4.41331E+24,,충청남도 천안시 서북구 서부6길 21,331974,31137,,,,127.1424448,36.82047082
MA010120220811481505,유채꽃,,G2,소매,G219,식물 소매,G21901,꽃집,G47851,화초 및 식물 소매업,44,충청남도,44270,당진시,44270380,신평면,4427038022,신평면,4.42704E+18,2,산,26,8,충청남도 당진시 신평면 초대리 산26-8,4.42705E+11,충청남도 당진시 신평면 새말길,66,,4.48304E+24,,충청남도 당진시 신평면 새말길 66,343811,31730,,,,126.7477257,36.90937133
MA010120220812386518,태평농장,,G2,소매,G219,식물 소매,G21901,꽃집,G47851,화초 및 식물 소매업,44,충청남도,44230,논산시,44230350,부적면,4423035029,부적면,4.42304E+18,1,대지,500,2,충청남도 논산시 부적면 탑정리 500-2,4.42303E+11,충청남도 논산시 부적면 부적로,341,,4.42304E+24,,충청남도 논산시 부적면 부적로 341,320863,32918,,,,127.140478,36.1872933
MA010120220812328452,리버라인스튜디오,,G2,소매,G219,식물 소매,G21901,꽃집,G47851,화초 및 식물 소매업,44,충청남도,44210,서산시,44210380,운산면,4421038032,운산면,4.42104E+18,1,대지,181,32,충청남도 서산시 운산면 용장리 181-32,4.42105E+11,충청남도 서산시 운산면 용장3길,16,2,4.42104E+24,,충청남도 서산시 운산면 용장3길 16-2,356832,31945,,1,,126.5857505,36.79892895
MA010120220812352234,마리의정원,,G2,소매,G219,식물 소매,G21901,꽃집,G47851,화초 및 식물 소매업,44,충청남도,44790,청양군,44790250,청양읍,4479025021,청양읍,4.47903E+18,1,대지,104,155,충청남도 청양군 청양읍 읍내리 104-155,4.47903E+11,충청남도 청양군 청양읍 칠갑산로,270,1,4.47903E+24,,충청남도 청양군 청양읍 칠갑산로 270-1,345804,33334,,,,126.8062426,36.45044579
MA010120220812515033,온플라워,,G2,소매,G219,식물 소매,G21901,꽃집,G47851,화초 및 식물 소매업,44,충청남도,44200,아산시,44200253,배방읍,4420025324,배방읍,4.42003E+18,1,대지,1545,,충청남도 아산시 배방읍 공수리 1545,4.42003E+11,충청남도 아산시 배방읍 모산로,97,,4.42003E+24,,충청남도 아산시 배방읍 모산로 97,336852,31480,,,,127.0534197,36.77419989
MA010120220812458796,청라푸른담쟁이,,G2,소매,G219,식물 소매,G21901,꽃집,G47851,화초 및 식물 소매업,44,충청남도,44180,보령시,44180350,청라면,4418035021,청라면,4.41804E+18,2,산,4,1,충청남도 보령시 청라면 나원리 산4-1,4.41805E+11,충청남도 보령시 청라면 자작골길,35,53,4.41804E+24,,충청남도 보령시 청라면 자작골길 35-53,355892,33424,,,,126.6925297,36.38874749
MA010120220812420245,시장꽃도소매,,G2,소매,G219,식물 소매,G21901,꽃집,G47851,화초 및 식물 소매업,44,충청남도,44150,공주시,44150540,웅진동,4415010500,산성동,4.41501E+18,1,대지,186,36,충청남도 공주시 산성동 186-36,4.41505E+11,충청남도 공주시 산성시장3길,98,,4.41501E+24,,충청남도 공주시 산성시장3길 98,314020,32540,,,,127.1240308,36.45837874
MA010120220812185665,법인연근상근,,G2,소매,G219,식물 소매,G21901,꽃집,G47851,화초 및 식물 소매업,44,충청남도,44790,청양군,44790320,대치면,4479032033,대치면,4.47903E+18,1,대지,734,,충청남도 청양군 대치면 시전리 734,4.47903E+11,충청남도 청양군 대치면 청산로,593,125,4.47903E+24,,충청남도 청양군 대치면 청산로 593-125,345893,33341,,,,126.8457701,36.4810348
MA010120220812664593,젠틀레인플라워천안성성점,,G2,소매,G219,식물 소매,G21901,꽃집,G47851,화초 및 식물 소매업,44,충청남도,44133,천안시 서북구,44133590,부성2동,4413310500,성성동,4.41331E+18,1,대지,749,,충청남도 천안시 서북구 성성동 749,4.41335E+11,충청남도 천안시 서북구 성성11길,39,,4.41331E+24,타임타워,충청남도 천안시 서북구 성성11길 39,331300,31079,,,,127.137844,36.84242721
MA010120220812106818,준스플라워,,G2,소매,G219,식물 소매,G21901,꽃집,G47851,화초 및 식물 소매업,44,충청남도,44210,서산시,44210550,석남동,4421010900,예천동,4.42101E+18,1,대지,575,4,충청남도 서산시 예천동 575-4,4.42105E+11,충청남도 서산시 공림1길,26,,4.42101E+24,,충청남도 서산시 공림1길 26,356808,31988,,,,126.4354013,36.77316951
MA010120220813275201,조화플라워,,G2,소매,G219,식물 소매,G21901,꽃집,G47851,화초 및 식물 소매업,44,충청남도,44180,보령시,44180515,대천1동,4418010100,대천동,4.41801E+18,1,대지,154,12,충청남도 보령시 대천동 154-12,4.41803E+11,충청남도 보령시 남대천로,11,,4.41801E+24,,충청남도 보령시 남대천로 11,355011,33465,,,,126.5956498,36.3521957
MA010120220813219165,무궁화꽃조경화원,,G2,소매,G219,식물 소매,G21901,꽃집,G47851,화초 및 식물 소매업,44,충청남도,44825,태안군,44825250,태안읍,4482525021,태안읍,4.48253E+18,1,대지,314,,충청남도 태안군 태안읍 동문리 314,4.48253E+11,충청남도 태안군 태안읍 샘골로,20,,4.48253E+24,,충청남도 태안군 태안읍 샘골로 20,357905,32143,,,,126.302063,36.75096174
MA010120220813237237,수풀,,G2,소매,G219,식물 소매,G21901,꽃집,G47851,화초 및 식물 소매업,44,충청남도,44131,천안시 동남구,44131250,목천읍,4413125036,목천읍,4.41313E+18,1,대지,178,1,충청남도 천안시 동남구 목천읍 삼성리 178-1,4.41315E+11,충청남도 천안시 동남구 목천읍 삼성4길,36,,4.41313E+24,,충청남도 천안시 동남구 목천읍 삼성4길 36,330845,31226,,,,127.1710766,36.76274382
MA010120220813219411,봉봉플레르,,G2,소매,G219,식물 소매,G21901,꽃집,G47851,화초 및 식물 소매업,44,충청남도,44210,서산시,44210360,성연면,4421036023,성연면,4.42104E+18,1,대지,1790,,충청남도 서산시 성연면 오사리 1790,4.42103E+11,충청남도 서산시 성연면 성연3로,97,,4.42104E+24,태성빌딩,충청남도 서산시 성연면 성연3로 97,356851,31931,,1,,126.4469764,36.8271097
MA010120220813041076,자스민다육,,G2,소매,G219,식물 소매,G21901,꽃집,G47851,화초 및 식물 소매업,44,충청남도,44210,서산시,44210510,부춘동,4421010100,읍내동,4.42101E+18,1,대지,273,1,충청남도 서산시 읍내동 273-1,4.42103E+11,충청남도 서산시 연당1로,5,,4.42101E+24,,충청남도 서산시 연당1로 5,356836,31974,,1,,126.4501709,36.78324094
MA010120220812970047,소소한다육농원,,G2,소매,G219,식물 소매,G21901,꽃집,G47851,화초 및 식물 소매업,44,충청남도,44200,아산시,44200310,송악면,4420031027,송악면,4.42003E+18,1,대지,720,,충청남도 아산시 송악면 유곡리 720,4.42005E+11,충청남도 아산시 송악면 유곡길,12,,4.42003E+24,,충청남도 아산시 송악면 유곡길 12,336923,31583,,,,126.9875454,36.69597576
MA010120220813033921,블루블룸천안불당,본점,G2,소매,G219,식물 소매,G21901,꽃집,G47851,화초 및 식물 소매업,44,충청남도,44133,천안시 서북구,44133566,불당1동,4413310800,불당동,4.41331E+18,1,대지,724,,충청남도 천안시 서북구 불당동 724,4.41335E+11,충청남도 천안시 서북구 검은들3길,42,,4.41331E+24,타워빌딩,충청남도 천안시 서북구 검은들3길 42,331982,31163,,,,127.1087957,36.81104471
MA010120220813135717,플레르하나,,G2,소매,G219,식물 소매,G21901,꽃집,G47851,화초 및 식물 소매업,44,충청남도,44150,공주시,44150570,신관동,4415012000,신관동,4.41501E+18,1,대지,595,6,충청남도 공주시 신관동 595-6,4.41503E+11,충청남도 공주시 신관로,26,,4.41501E+24,,충청남도 공주시 신관로 26,314802,32573,,,,127.1310909,36.47070812
MA010120220813110358,남산분재예술원,,G2,소매,G219,식물 소매,G21901,꽃집,G47851,화초 및 식물 소매업,44,충청남도,44200,아산시,44200253,배방읍,4420025324,배방읍,4.42003E+18,1,대지,843,,충청남도 아산시 배방읍 공수리 843,4.42003E+11,충청남도 아산시 배방읍 온천대로,1840,,4.42003E+24,,충청남도 아산시 배방읍 온천대로 1840,336852,31477,,,,127.0400328,36.77194334
MA010120220813087655,오월,,G2,소매,G219,식물 소매,G21901,꽃집,G47851,화초 및 식물 소매업,44,충청남도,44800,홍성군,44800256,홍북읍,4480025625,홍북읍,4.48003E+18,1,대지,893,,충청남도 홍성군 홍북읍 신경리 893,4.48002E+11,충청남도 홍성군 홍북읍 충남대로,24,,4.48003E+24,내포제나우스오피스텔,충청남도 홍성군 홍북읍 충남대로 24,350831,32263,,,,126.6734647,36.6557709
MA010120220813077840,엔젤조경,,G2,소매,G219,식물 소매,G21901,꽃집,G47851,화초 및 식물 소매업,44,충청남도,44150,공주시,44150340,반포면,4415034033,반포면,4.41503E+18,1,대지,349,,충청남도 공주시 반포면 학봉리 349,4.41505E+11,충청남도 공주시 반포면 임금봉길,109,,4.41503E+24,,충청남도 공주시 반포면 임금봉길 109,314924,32626,,,,127.2556322,36.36871042
MA010120220812955549,백암,,G2,소매,G219,식물 소매,G21901,꽃집,G47851,화초 및 식물 소매업,44,충청남도,44133,천안시 서북구,44133560,백석동,4413310300,백석동,4.41331E+18,1,대지,806,,충청남도 천안시 서북구 백석동 806,4.41335E+11,충청남도 천안시 서북구 백석5길,24,6,4.41331E+24,,충청남도 천안시 서북구 백석5길 24-6,331980,31159,,,,127.1265223,36.82311105
MA010120220812865178,티젤플라워,,G2,소매,G219,식물 소매,G21901,꽃집,G47851,화초 및 식물 소매업,44,충청남도,44131,천안시 동남구,44131580,청룡동,4413111100,청당동,4.41311E+18,1,대지,873,,충청남도 천안시 동남구 청당동 873,4.41315E+11,충청남도 천안시 동남구 청수10길,4,63,4.41311E+24,,충청남도 천안시 동남구 청수10길 4-63,330270,31197,,1,,127.1615753,36.78223923
MA010120220812833656,엄지다육이,,G2,소매,G219,식물 소매,G21901,꽃집,G47851,화초 및 식물 소매업,44,충청남도,44200,아산시,44200310,송악면,4420031022,송악면,4.42003E+18,1,대지,75,3,충청남도 아산시 송악면 평촌리 75-3,4.42005E+11,충청남도 아산시 송악면 평촌길50번길,75,4,4.42003E+24,,충청남도 아산시 송악면 평촌길50번길 75-4,336922,31556,,,,127.0032358,36.73978007
MA010120220812813562,블루밍플라워,,G2,소매,G219,식물 소매,G21901,꽃집,G47851,화초 및 식물 소매업,44,충청남도,44200,아산시,44200360,둔포면,4420036032,둔포면,4.42004E+18,1,대지,1808,,충청남도 아산시 둔포면 석곡리 1808,4.42003E+11,충청남도 아산시 둔포면 아산밸리중앙로,50,,4.42004E+24,테크노밸리이지더원1단지,충청남도 아산시 둔포면 아산밸리중앙로 50,336871,31406,,1,,127.0526705,36.923216
MA010120220812783598,봉강난원,,G2,소매,G219,식물 소매,G21901,꽃집,G47851,화초 및 식물 소매업,44,충청남도,44200,아산시,44200253,배방읍,4420025321,배방읍,4.42003E+18,1,대지,13,2,충청남도 아산시 배방읍 중리 13-2,4.42005E+11,충청남도 아산시 배방읍 중리길,72,,4.42003E+24,,충청남도 아산시 배방읍 중리길 72,336856,31581,,,,127.0462892,36.74487146
MA010120220813899212,프롬예그리나,,G2,소매,G219,식물 소매,G21901,꽃집,G47851,화초 및 식물 소매업,44,충청남도,44150,공주시,44150590,월송동,4415012100,금흥동,4.41501E+18,1,대지,615,9,충청남도 공주시 금흥동 615-9,4.41505E+11,충청남도 공주시 한적2길,41,46,4.41501E+24,,충청남도 공주시 한적2길 41-46,314120,32569,,,,127.1380107,36.47818897
MA010120220813903867,꽃나무이야기카페,,G2,소매,G219,식물 소매,G21901,꽃집,G47851,화초 및 식물 소매업,44,충청남도,44200,아산시,44200253,배방읍,4420025324,배방읍,4.42003E+18,1,대지,151,63,충청남도 아산시 배방읍 공수리 151-63,4.42005E+11,충청남도 아산시 배방읍 모산로126번길,10,,4.42003E+24,,충청남도 아산시 배방읍 모산로126번길 10,336852,31484,,,,127.0565782,36.77374787
MA010120220813914371,앨리스가든,,G2,소매,G219,식물 소매,G21901,꽃집,G47851,화초 및 식물 소매업,44,충청남도,44200,아산시,44200253,배방읍,4420025331,배방읍,4.42003E+18,1,대지,364,4,충청남도 아산시 배방읍 장재리 364-4,4.42003E+11,충청남도 아산시 배방읍 희망로,100,,4.42003E+24,천안아산역,충청남도 아산시 배방읍 희망로 100,336857,31470,,2,,127.1044474,36.79452221
MA010120220813645497,전원다육,,G2,소매,G219,식물 소매,G21901,꽃집,G47851,화초 및 식물 소매업,44,충청남도,44200,아산시,44200253,배방읍,4420025332,배방읍,4.42003E+18,1,대지,92,10,충청남도 아산시 배방읍 구령리 92-10,4.42003E+11,충청남도 아산시 배방읍 한내로,97,,4.42003E+24,,충청남도 아산시 배방읍 한내로 97,336852,31477,,,,127.0518249,36.78467156
MA010120220813664474,법인티스투,,G2,소매,G219,식물 소매,G21901,꽃집,G47851,화초 및 식물 소매업,44,충청남도,44770,서천군,44770380,판교면,4477038029,판교면,4.47704E+18,1,대지,179,5,충청남도 서천군 판교면 현암리 179-5,4.47705E+11,충청남도 서천군 판교면 종판로887번길,65,,4.47704E+24,,충청남도 서천군 판교면 종판로887번길 65,325822,33615,,,,126.6892577,36.15720565
MA010120220813790396,에이플,,G2,소매,G219,식물 소매,G21901,꽃집,G47851,화초 및 식물 소매업,44,충청남도,44800,홍성군,44800250,홍성읍,4480025026,홍성읍,4.48003E+18,1,대지,214,13,충청남도 홍성군 홍성읍 남장리 214-13,4.48003E+11,충청남도 홍성군 홍성읍 충서로,1222,7,4.48003E+24,,충청남도 홍성군 홍성읍 충서로 1222-7,350803,32244,,,,126.6570341,36.58531902
MA010120220813852874,부영플라워,,G2,소매,G219,식물 소매,G21901,꽃집,G47851,화초 및 식물 소매업,44,충청남도,44210,서산시,44210510,부춘동,4421010100,읍내동,4.42101E+18,1,대지,624,5,충청남도 서산시 읍내동 624-5,4.42103E+11,충청남도 서산시 부춘1로,19,,4.42101E+24,부영,충청남도 서산시 부춘1로 19,356759,31971,,1,,126.4442926,36.78436704
MA010120220813694749,희정원,,G2,소매,G219,식물 소매,G21901,꽃집,G47851,화초 및 식물 소매업,44,충청남도,44133,천안시 서북구,44133510,성정1동,4413310100,와촌동,4.41331E+18,1,대지,126,94,충청남도 천안시 서북구 와촌동 126-94,4.41335E+11,충청남도 천안시 서북구 천안천3길,32,,4.41331E+24,,충청남도 천안시 서북구 천안천3길 32,331998,31152,,1,,127.143325,36.80566452
MA010120220813716721,오월의꽃,,G2,소매,G219,식물 소매,G21901,꽃집,G47851,화초 및 식물 소매업,44,충청남도,44250,계룡시,44250510,금암동,4425010100,금암동,4.42501E+18,1,대지,176,3,충청남도 계룡시 금암동 176-3,4.42505E+11,충청남도 계룡시 장안1길,20,,4.42501E+24,,충청남도 계룡시 장안1길 20,321900,32824,,,,127.2472721,36.27259884
MA010120220813577280,좋은자리플라워,,G2,소매,G219,식물 소매,G21901,꽃집,G47851,화초 및 식물 소매업,44,충청남도,44133,천안시 서북구,44133566,불당1동,4413310800,불당동,4.41331E+18,1,대지,1141,,충청남도 천안시 서북구 불당동 1141,4.41335E+11,충청남도 천안시 서북구 불당5길,28,,4.41331E+24,,충청남도 천안시 서북구 불당5길 28,331984,31164,,,,127.1098049,36.8036006
MA010120220813586450,준서사랑다육이,,G2,소매,G219,식물 소매,G21901,꽃집,G47851,화초 및 식물 소매업,44,충청남도,44210,서산시,44210370,음암면,4421037023,음암면,4.42104E+18,1,대지,869,1,충청남도 서산시 음암면 문양리 869-1,4.42105E+11,충청남도 서산시 음암면 문양2길,155,8,4.42104E+24,,충청남도 서산시 음암면 문양2길 155-8,356843,31935,,,,126.5070996,36.82393194
MA010120220813555714,천안시산림조합임산물유통센터,,G2,소매,G219,식물 소매,G21901,꽃집,G47851,화초 및 식물 소매업,44,충청남도,44131,천안시 동남구,44131530,원성1동,4413111200,유량동,4.41311E+18,1,대지,398,4,충청남도 천안시 동남구 유량동 398-4,4.41315E+11,충청남도 천안시 동남구 태조산길,27,,4.41311E+24,,충청남도 천안시 동남구 태조산길 27,330071,31068,,,,127.1674531,36.81149923
MA010120220813478056,꽃.닢,,G2,소매,G219,식물 소매,G21901,꽃집,G47851,화초 및 식물 소매업,44,충청남도,44270,당진시,44270253,송악읍,4427025333,송악읍,4.42703E+18,1,대지,1637,12,충청남도 당진시 송악읍 복운리 1637-12,4.42705E+11,충청남도 당진시 송악읍 신복운로6길,4,5,4.42703E+24,,충청남도 당진시 송악읍 신복운로6길 4-5,343827,31724,,1,,126.7819713,36.94136479
MA010120220813960145,한국생강생산자연합회,,G2,소매,G219,식물 소매,G21901,꽃집,G47851,화초 및 식물 소매업,44,충청남도,44210,서산시,44210320,부석면,4421032026,부석면,4.42103E+18,1,대지,273,10,충청남도 서산시 부석면 취평리 273-10,4.42105E+11,충청남도 서산시 부석면 취평2길,24,,4.42103E+24,,충청남도 서산시 부석면 취평2길 24,356895,32019,,,,126.3930865,36.71447933
MA010120220813451306,마몽플레르,,G2,소매,G219,식물 소매,G21901,꽃집,G47851,화초 및 식물 소매업,44,충청남도,44131,천안시 동남구,44131560,일봉동,4413111400,다가동,4.41311E+18,1,대지,374,2,충청남도 천안시 동남구 다가동 374-2,4.41315E+11,충청남도 천안시 동남구 차돌고개2길,18,,4.41311E+24,,충청남도 천안시 동남구 차돌고개2길 18,330110,31154,,1,,127.1348773,36.80017762
MA0101202209C0027059,플로라,,G2,소매,G219,식물 소매,G21901,꽃집,G47851,화초 및 식물 소매업,44,충청남도,44250,계룡시,44250315,엄사면,4425031521,엄사면,4.42503E+18,1,대지,129,4,충청남도 계룡시 엄사면 엄사리 129-4,4.42505E+11,충청남도 계룡시 엄사면 번영2길,21,25,4.42503E+24,,충청남도 계룡시 엄사면 번영2길 21-25,321931,32806,,,,127.2386345,36.29049597
MA0101202209C0004189,그대는꽃,,G2,소매,G219,식물 소매,G21901,꽃집,G47851,화초 및 식물 소매업,44,충청남도,44133,천안시 서북구,44133560,백석동,4413310300,백석동,4.41331E+18,1,대지,148,59,충청남도 천안시 서북구 백석동 148-59,4.41333E+11,충청남도 천안시 서북구 백석로,85,9,4.41331E+24,,충청남도 천안시 서북구 백석로 85-9,331979,31097,,,,127.1206507,36.82414442
MA0101202209A0098598,봉봉데이지,,G2,소매,G219,식물 소매,G21901,꽃집,G47851,화초 및 식물 소매업,44,충청남도,44200,아산시,44200253,배방읍,4420025331,배방읍,4.42003E+18,1,대지,1613,,충청남도 아산시 배방읍 장재리 1613,4.42005E+11,충청남도 아산시 배방읍 공원로16번길,4,3,4.42003E+24,투썸하우스,충청남도 아산시 배방읍 공원로16번길 4-3,336857,31470,,,,127.0999085,36.78497431
MA010120220814287218,안개꽃집,,G2,소매,G219,식물 소매,G21901,꽃집,G47851,화초 및 식물 소매업,44,충청남도,44210,서산시,44210510,부춘동,4421010100,읍내동,4.42101E+18,1,대지,165,23,충청남도 서산시 읍내동 165-23,4.42103E+11,충청남도 서산시 동헌로,132,,4.42101E+24,,충청남도 서산시 동헌로 132,356836,31984,,,,126.4514628,36.78115634
MA010120220814307140,썬flower,,G2,소매,G219,식물 소매,G21901,꽃집,G47851,화초 및 식물 소매업,44,충청남도,44825,태안군,44825250,태안읍,4482525021,태안읍,4.48253E+18,1,대지,900,1,충청남도 태안군 태안읍 동문리 900-1,4.48255E+11,충청남도 태안군 태안읍 정주내3길,10,2,4.48253E+24,,충청남도 태안군 태안읍 정주내3길 10-2,357905,32144,,,,126.3042601,36.74574822
MA010120220814276036,아침햇살플라워조경,,G2,소매,G219,식물 소매,G21901,꽃집,G47851,화초 및 식물 소매업,44,충청남도,44131,천안시 동남구,44131530,원성1동,4413111200,유량동,4.41311E+18,1,대지,273,6,충청남도 천안시 동남구 유량동 273-6,4.41313E+11,충청남도 천안시 동남구 벌말2로,3,28,4.41311E+24,아침햇살플라워,충청남도 천안시 동남구 벌말2로 3-28,330952,31068,,,,127.1779717,36.81434948
MA010120220814267493,메이블랑플라워,,G2,소매,G219,식물 소매,G21901,꽃집,G47851,화초 및 식물 소매업,44,충청남도,44200,아산시,44200610,온양5동,4420011200,용화동,4.42001E+18,1,대지,1430,,충청남도 아산시 용화동 1430,4.42005E+11,충청남도 아산시 용화고길,57,13,4.42001E+24,라비앙로즈빌,충청남도 아산시 용화고길 57-13,336050,31575,,,,127.0080986,36.7734006
MA0101202209A0056815,매직플라워,,G2,소매,G219,식물 소매,G21901,꽃집,G47851,화초 및 식물 소매업,44,충청남도,44200,아산시,44200410,신창면,4420041022,신창면,4.42004E+18,1,대지,406,,충청남도 아산시 신창면 읍내리 406,4.42005E+11,충청남도 아산시 신창면 읍내남길,12,,4.42004E+24,,충청남도 아산시 신창면 읍내남길 12,336885,31536,,3,,126.9326658,36.77686013
MA0101202209A0047985,더숲,,G2,소매,G219,식물 소매,G21901,꽃집,G47851,화초 및 식물 소매업,44,충청남도,44200,아산시,44200370,영인면,4420037030,영인면,4.42004E+18,1,대지,33,1,충청남도 아산시 영인면 신봉리 33-1,4.42005E+11,충청남도 아산시 영인면 윤보선로142번길,59,,4.42004E+24,,충청남도 아산시 영인면 윤보선로142번길 59,336822,31422,,,,127.0053395,36.88435424
MA010120220814376295,미자네다육,,G2,소매,G219,식물 소매,G21901,꽃집,G47851,화초 및 식물 소매업,44,충청남도,44200,아산시,44200370,영인면,4420037030,영인면,4.42004E+18,1,대지,302,15,충청남도 아산시 영인면 신봉리 302-15,4.42005E+11,충청남도 아산시 영인면 아산호로840번길,150,7,4.42004E+24,,충청남도 아산시 영인면 아산호로840번길 150-7,336822,31401,,,,126.9975315,36.90431366
MA010120220814376999,유명티씨,,G2,소매,G219,식물 소매,G21901,꽃집,G47851,화초 및 식물 소매업,44,충청남도,44800,홍성군,44800250,홍성읍,4480025024,홍성읍,4.48003E+18,1,대지,831,1,충청남도 홍성군 홍성읍 월산리 831-1,4.48005E+11,충청남도 홍성군 홍성읍 월산2길,17,,4.48003E+24,드림빌,충청남도 홍성군 홍성읍 월산2길 17,350809,32226,,,,126.6465522,36.60017523
MA010120220814361391,머물고싶은곳,,G2,소매,G219,식물 소매,G21901,꽃집,G47851,화초 및 식물 소매업,44,충청남도,44150,공주시,44150400,신풍면,4415040021,신풍면,4.41504E+18,2,산,41,2,충청남도 공주시 신풍면 산정리 산41-2,4.41505E+11,충청남도 공주시 신풍면 심방울2길,41,,4.41504E+24,,충청남도 공주시 신풍면 심방울2길 41,314882,32525,,,,126.9454156,36.52023224
MA0101202209A0015234,다솔,,G2,소매,G219,식물 소매,G21901,꽃집,G47851,화초 및 식물 소매업,44,충청남도,44200,아산시,44200330,탕정면,4420033022,탕정면,4.42003E+18,1,대지,382,33,충청남도 아산시 탕정면 명암리 382-33,4.42005E+11,충청남도 아산시 탕정면 명암길2번길,77,6,4.42003E+24,,충청남도 아산시 탕정면 명암길2번길 77-6,336841,31452,,,,127.058872,36.82905704
MA010120220814197314,나눔플라워,,G2,소매,G219,식물 소매,G21901,꽃집,G47851,화초 및 식물 소매업,44,충청남도,44210,서산시,44210540,수석동,4421010700,석림동,4.42101E+18,1,대지,521,10,충청남도 서산시 석림동 521-10,4.42103E+11,충청남도 서산시 석림4로,84,,4.42101E+24,,충청남도 서산시 석림4로 84,356818,32000,,1,,126.4640636,36.77337417
MA010120220814242730,와이디꽃자재천안,,G2,소매,G219,식물 소매,G21901,꽃집,G47851,화초 및 식물 소매업,44,충청남도,44131,천안시 동남구,44131570,신방동,4413111600,신방동,4.41311E+18,1,대지,140,,충청남도 천안시 동남구 신방동 140,4.41313E+11,충청남도 천안시 동남구 충무로,48,84,4.41311E+24,,충청남도 천안시 동남구 충무로 48-84,330939,31178,,,,127.125709,36.78498588
MA010120220814109718,여미지화원,,G2,소매,G219,식물 소매,G21901,꽃집,G47851,화초 및 식물 소매업,44,충청남도,44200,아산시,44200610,온양5동,4420011200,용화동,4.42001E+18,1,대지,306,1,충청남도 아산시 용화동 306-1,4.42005E+11,충청남도 아산시 시민로317번길,19,,4.42001E+24,,충청남도 아산시 시민로317번길 19,336050,31566,,1,,126.994903,36.7787534
MA010120220814149131,몽산포다육이,,G2,소매,G219,식물 소매,G21901,꽃집,G47851,화초 및 식물 소매업,44,충청남도,44825,태안군,44825320,남면,4482532022,남면,4.48253E+18,1,대지,967,,충청남도 태안군 남면 몽산리 967,4.48255E+11,충청남도 태안군 남면 우운길,56,19,4.48253E+24,,충청남도 태안군 남면 우운길 56-19,357954,32152,,,,126.2824266,36.68789377
MA010120220814139058,드메르플라워,,G2,소매,G219,식물 소매,G21901,꽃집,G47851,화초 및 식물 소매업,44,충청남도,44210,서산시,44210550,석남동,4421010800,석남동,4.42101E+18,1,대지,6,125,충청남도 서산시 석남동 6-125,4.42103E+11,충청남도 서산시 한마음5로,13,,4.42101E+24,,충청남도 서산시 한마음5로 13,356110,31990,,1,,126.4534269,36.77274907
MA010120220814129063,클라라의정원,,G2,소매,G219,식물 소매,G21901,꽃집,G47851,화초 및 식물 소매업,44,충청남도,44200,아산시,44200310,송악면,4420031031,송악면,4.42003E+18,1,대지,647,,충청남도 아산시 송악면 강장리 647,4.42003E+11,충청남도 아산시 송악면 송악로,200,6,4.42003E+24,,충청남도 아산시 송악면 송악로 200-6,336922,31555,,,,126.9588205,36.71695654
MA010120220814044180,사계절꽃&차,,G2,소매,G219,식물 소매,G21901,꽃집,G47851,화초 및 식물 소매업,44,충청남도,44270,당진시,44270520,당진2동,4427010700,대덕동,4.42701E+18,1,대지,1811,,충청남도 당진시 대덕동 1811,4.42703E+11,충청남도 당진시 대덕1로,117,,4.42701E+24,,충청남도 당진시 대덕1로 117,343030,31778,,1,,126.6444858,36.88394872
MA0101202302A0046217,지음,,G2,소매,G219,식물 소매,G21901,꽃집,G47851,화초 및 식물 소매업,44,충청남도,44210,서산시,44210540,수석동,4421010700,석림동,4.42101E+18,1,대지,527,17,충청남도 서산시 석림동 527-17,4.42105E+11,충청남도 서산시 율지19길,5,,4.42101E+24,,충청남도 서산시 율지19길 5,356818,31993,,,,126.4641354,36.77593363
MA0101202212A0065237,서산해미꽃화원,,G2,소매,G219,식물 소매,G21901,꽃집,G47851,화초 및 식물 소매업,44,충청남도,44210,서산시,44210390,해미면,4421039021,해미면,4.42104E+18,1,대지,349,3,충청남도 서산시 해미면 읍내리 349-3,4.42103E+11,충청남도 서산시 해미면 서문1로,5,,4.42104E+24,,충청남도 서산시 해미면 서문1로 5,356826,31960,,,,126.5455143,36.71336566
MA0101202212A0077195,아산가드닝,,G2,소매,G219,식물 소매,G21901,꽃집,G47851,화초 및 식물 소매업,44,충청남도,44200,아산시,44200580,온양2동,4420010100,온천동,4.42001E+18,1,대지,725,,충청남도 아산시 온천동 725,4.42005E+11,충청남도 아산시 온화로29번길,4,1,4.42001E+24,,충청남도 아산시 온화로29번길 4-1,336819,31570,,1,,127.0008177,36.77791547
MA0101202302A0017843,아산플라워,,G2,소매,G219,식물 소매,G21901,꽃집,G47851,화초 및 식물 소매업,44,충청남도,44200,아산시,44200360,둔포면,4420036026,둔포면,4.42004E+18,1,대지,271,,충청남도 아산시 둔포면 신항리 271,4.42005E+11,충청남도 아산시 둔포면 해위안길62번길,59,,4.42004E+24,,충청남도 아산시 둔포면 해위안길62번길 59,336873,31421,,,,127.0236598,36.89106519
MA0101202302A0021569,루화플라워,,G2,소매,G219,식물 소매,G21901,꽃집,G47851,화초 및 식물 소매업,44,충청남도,44210,서산시,44210550,석남동,4421010900,예천동,4.42101E+18,1,대지,438,3,충청남도 서산시 예천동 438-3,4.42103E+11,충청남도 서산시 예천3로,40,,4.42101E+24,,충청남도 서산시 예천3로 40,356807,31998,,,,126.4430975,36.76992576
MA0101202301A0099183,나무와,,G2,소매,G219,식물 소매,G21901,꽃집,G47851,화초 및 식물 소매업,44,충청남도,44200,아산시,44200250,염치읍,4420025027,염치읍,4.42003E+18,1,대지,258,5,충청남도 아산시 염치읍 동정리 258-5,4.42005E+11,충청남도 아산시 염치읍 동정길213번길,10,,4.42003E+24,,충청남도 아산시 염치읍 동정길213번길 10,336812,31444,,,,126.9932181,36.83072045
MA0101202301A0053107,플라워스튜디오피크,,G2,소매,G219,식물 소매,G21901,꽃집,G47851,화초 및 식물 소매업,44,충청남도,44131,천안시 동남구,44131590,신안동,4413111800,신부동,4.41311E+18,1,대지,298,62,충청남도 천안시 동남구 신부동 298-62,4.41313E+11,충청남도 천안시 동남구 단대로,31,,4.41311E+24,,충청남도 천안시 동남구 단대로 31,330942,31115,,,,127.1554698,36.82657303
MA0101202212A0028158,허니플로,,G2,소매,G219,식물 소매,G21901,꽃집,G47851,화초 및 식물 소매업,44,충청남도,44131,천안시 동남구,44131580,청룡동,4413111100,청당동,4.41311E+18,1,대지,299,15,충청남도 천안시 동남구 청당동 299-15,4.41313E+11,충청남도 천안시 동남구 광풍로,1822,,4.41311E+24,아이지타워,충청남도 천안시 동남구 광풍로 1822,330270,31211,,,,127.1462478,36.78103355
MA0101202212A0026919,서산화원,,G2,소매,G219,식물 소매,G21901,꽃집,G47851,화초 및 식물 소매업,44,충청남도,44210,서산시,44210525,동문1동,4421010200,동문동,4.42101E+18,1,대지,417,10,충청남도 서산시 동문동 417-10,4.42105E+11,충청남도 서산시 학동12길,3,,4.42101E+24,,충청남도 서산시 학동12길 3,356802,31977,,,,126.4607742,36.78403739
MA0101202212A0017413,메리빈플라워,,G2,소매,G219,식물 소매,G21901,꽃집,G47851,화초 및 식물 소매업,44,충청남도,44133,천안시 서북구,44133540,쌍용2동,4413310700,쌍용동,4.41331E+18,1,대지,1466,,충청남도 천안시 서북구 쌍용동 1466,4.41333E+11,충청남도 천안시 서북구 월봉로,104,,4.41331E+24,,충청남도 천안시 서북구 월봉로 104,331955,31172,,1,,127.118551,36.79998776
MA0101202211A0097840,오후의꽃집,,G2,소매,G219,식물 소매,G21901,꽃집,G47851,화초 및 식물 소매업,44,충청남도,44825,태안군,44825250,태안읍,4482525022,태안읍,4.48253E+18,1,대지,694,17,충청남도 태안군 태안읍 남문리 694-17,4.48255E+11,충청남도 태안군 태안읍 군청10길,13,,4.48253E+24,도원빌,충청남도 태안군 태안읍 군청10길 13,357901,32144,,,,126.297902,36.74677417
MA0101202303A0018578,수플비,,G2,소매,G219,식물 소매,G21901,꽃집,G47851,화초 및 식물 소매업,44,충청남도,44210,서산시,44210380,운산면,4421038034,운산면,4.42104E+18,1,대지,203,1,충청남도 서산시 운산면 여미리 203-1,4.42105E+11,충청남도 서산시 운산면 이문안길,72,10,4.42104E+24,,충청남도 서산시 운산면 이문안길 72-10,356834,31943,,,,126.5733606,36.82468376
MA0101202303A0025524,청담플라워,,G2,소매,G219,식물 소매,G21901,꽃집,G47851,화초 및 식물 소매업,44,충청남도,44200,아산시,44200620,온양6동,4420010700,법곡동,4.42001E+18,1,대지,284,,충청남도 아산시 법곡동 284,4.42003E+11,충청남도 아산시 순천향로,675,,4.42001E+24,,충청남도 아산시 순천향로 675,336150,31560,,,,126.9974692,36.7524138
MA0101202303A0001120,광야농원,,G2,소매,G219,식물 소매,G21901,꽃집,G47851,화초 및 식물 소매업,44,충청남도,44200,아산시,44200253,배방읍,4420025324,배방읍,4.42003E+18,1,대지,843,,충청남도 아산시 배방읍 공수리 843,4.42003E+11,충청남도 아산시 배방읍 온천대로,1840,,4.42003E+24,,충청남도 아산시 배방읍 온천대로 1840,336852,31477,,1,,127.0400328,36.77194334
MA0101202303A0025668,현플라워,,G2,소매,G219,식물 소매,G21901,꽃집,G47851,화초 및 식물 소매업,44,충청남도,44825,태안군,44825250,태안읍,4482525022,태안읍,4.48253E+18,1,대지,681,1,충청남도 태안군 태안읍 남문리 681-1,4.48255E+11,충청남도 태안군 태안읍 군청2길,2,,4.48253E+24,,충청남도 태안군 태안읍 군청2길 2,357901,32144,,1,,126.2969372,36.74942672
MA0101202302A0098639,업소명없음,,G2,소매,G219,식물 소매,G21901,꽃집,G47851,화초 및 식물 소매업,44,충청남도,44200,아산시,44200610,온양5동,4420010500,초사동,4.42001E+18,1,대지,189,,충청남도 아산시 초사동 189,4.42005E+11,충청남도 아산시 무궁화안길14번길,2,12,4.42001E+24,,충청남도 아산시 무궁화안길14번길 2-12,336090,31539,,,,126.9807068,36.74655498
MA0101202303A0002325,해바라기화원,,G2,소매,G219,식물 소매,G21901,꽃집,G47851,화초 및 식물 소매업,44,충청남도,44825,태안군,44825250,태안읍,4482525022,태안읍,4.48253E+18,1,대지,681,1,충청남도 태안군 태안읍 남문리 681-1,4.48255E+11,충청남도 태안군 태안읍 군청2길,2,,4.48253E+24,,충청남도 태안군 태안읍 군청2길 2,357901,32144,,1,,126.2969372,36.74942672
MA0101202211A0026941,에덴들꽃,,G2,소매,G219,식물 소매,G21901,꽃집,G47851,화초 및 식물 소매업,44,충청남도,44200,아산시,44200350,음봉면,4420035027,음봉면,4.42004E+18,1,대지,475,6,충청남도 아산시 음봉면 소동리 475-6,4.42003E+11,충청남도 아산시 음봉면 연암율금로,119,,4.42004E+24,,충청남도 아산시 음봉면 연암율금로 119,336864,31413,,,,127.0391612,36.86406411
MA0101202211A0032831,프렌디유,,G2,소매,G219,식물 소매,G21901,꽃집,G47851,화초 및 식물 소매업,44,충청남도,44210,서산시,44210540,수석동,4421010700,석림동,4.42101E+18,1,대지,637,1,충청남도 서산시 석림동 637-1,4.42103E+11,충청남도 서산시 한마음13로,29,,4.42101E+24,,충청남도 서산시 한마음13로 29,356819,31994,,3,,126.4602513,36.77551959
MA0101202211A0001065,유어스플레르,,G2,소매,G219,식물 소매,G21901,꽃집,G47851,화초 및 식물 소매업,44,충청남도,44200,아산시,44200590,온양3동,4420011400,권곡동,4.42001E+18,1,대지,539,5,충청남도 아산시 권곡동 539-5,4.42003E+11,충청남도 아산시 충무로,90,,4.42001E+24,,충청남도 아산시 충무로 90,336030,31515,,,,127.0070359,36.78898096
MA0101202211A0034125,베르겔플라워,,G2,소매,G219,식물 소매,G21901,꽃집,G47851,화초 및 식물 소매업,44,충청남도,44133,천안시 서북구,44133560,백석동,4413310300,백석동,4.41331E+18,1,대지,1049,,충청남도 천안시 서북구 백석동 1049,4.41333E+11,충청남도 천안시 서북구 한들1로,184,,4.41331E+24,마치에비뉴3차,충청남도 천안시 서북구 한들1로 184,331220,31087,,,,127.1206738,36.83888651
MA0101202305A0197744,샤론꽃집,,G2,소매,G219,식물 소매,G21901,꽃집,G47851,화초 및 식물 소매업,44,충청남도,44210,서산시,44210510,부춘동,4421010100,읍내동,4.42101E+18,1,대지,71,13,충청남도 서산시 읍내동 71-13,4.42103E+11,충청남도 서산시 안견로,312,,4.42101E+24,동측서원빌딩,충청남도 서산시 안견로 312,356805,31984,,1,,126.448935,36.77748618
MA0101202305A0175082,피움꽃농원,,G2,소매,G219,식물 소매,G21901,꽃집,G47851,화초 및 식물 소매업,44,충청남도,44800,홍성군,44800256,홍북읍,4480025621,홍북읍,4.48003E+18,1,대지,201,2,충청남도 홍성군 홍북읍 중계리 201-2,4.48005E+11,충청남도 홍성군 홍북읍 이응노로183번길,99,,4.48003E+24,,충청남도 홍성군 홍북읍 이응노로183번길 99,350834,32251,,,,126.6337482,36.63715519
MA0101202305A0206750,꼬티크,,G2,소매,G219,식물 소매,G21901,꽃집,G47851,화초 및 식물 소매업,44,충청남도,44210,서산시,44210550,석남동,4421010900,예천동,4.42101E+18,1,대지,1549,,충청남도 서산시 예천동 1549,4.42103E+11,충청남도 서산시 예천5로,18,,4.42101E+24,,충청남도 서산시 예천5로 18,356110,32005,,,,126.4485127,36.76449929
MA0101202305A0166870,인사동다육,,G2,소매,G219,식물 소매,G21901,꽃집,G47851,화초 및 식물 소매업,44,충청남도,44200,아산시,44200610,온양5동,4420011200,용화동,4.42001E+18,1,대지,782,,충청남도 아산시 용화동 782,4.42005E+11,충청남도 아산시 시민로234번길,4,,4.42001E+24,,충청남도 아산시 시민로234번길 4,336050,31568,,,,126.9945787,36.77068839
MA0101202305A0151583,정원의아이,,G2,소매,G219,식물 소매,G21901,꽃집,G47851,화초 및 식물 소매업,44,충청남도,44133,천안시 서북구,44133530,쌍용1동,4413310700,쌍용동,4.41331E+18,1,대지,994,,충청남도 천안시 서북구 쌍용동 994,4.41335E+11,충청남도 천안시 서북구 미라3길,66,,4.41331E+24,썬라이더,충청남도 천안시 서북구 미라3길 66,331949,31155,,,,127.1317262,36.8053265
MA0101202305A0137897,꽃이야나무야아산세종,,G2,소매,G219,식물 소매,G21901,꽃집,G47851,화초 및 식물 소매업,44,충청남도,44200,아산시,44200580,온양2동,4420010100,온천동,4.42001E+18,1,대지,725,,충청남도 아산시 온천동 725,4.42005E+11,충청남도 아산시 온화로29번길,4,1,4.42001E+24,,충청남도 아산시 온화로29번길 4-1,336819,31570,,1,,127.0008177,36.77791547
MA0101202305A0022537,아람;꽃그리고케익,,G2,소매,G219,식물 소매,G21901,꽃집,G47851,화초 및 식물 소매업,44,충청남도,44131,천안시 동남구,44131580,청룡동,4413111100,청당동,4.41311E+18,1,대지,526,,충청남도 천안시 동남구 청당동 526,4.41313E+11,충청남도 천안시 동남구 청수11로,34,,4.41311E+24,,충청남도 천안시 동남구 청수11로 34,330270,31198,,,,127.1562207,36.78239056
MA0101202303A0107197,남플라워,,G2,소매,G219,식물 소매,G21901,꽃집,G47851,화초 및 식물 소매업,44,충청남도,44210,서산시,44210550,석남동,4421010800,석남동,4.42101E+18,1,대지,34,11,충청남도 서산시 석남동 34-11,4.42103E+11,충청남도 서산시 석남1로,15,7,4.42101E+24,,충청남도 서산시 석남1로 15-7,356110,31995,,1,,126.4547258,36.77123216
MA0101202306A0096419,대산조경,,G2,소매,G219,식물 소매,G21901,꽃집,G47851,화초 및 식물 소매업,44,충청남도,44270,당진시,44270380,신평면,4427038029,신평면,4.42704E+18,1,대지,224,1,충청남도 당진시 신평면 신당리 224-1,4.42705E+11,충청남도 당진시 신평면 궁말길,69,,4.48304E+24,,충청남도 당진시 신평면 궁말길 69,343816,31744,,,,126.8082942,36.87930676
MA0101202303A0070972,그을린,,G2,소매,G219,식물 소매,G21901,꽃집,G47851,화초 및 식물 소매업,44,충청남도,44200,아산시,44200330,탕정면,4420033026,탕정면,4.42003E+18,1,대지,48,4,충청남도 아산시 탕정면 갈산리 48-4,4.42003E+11,충청남도 아산시 탕정면 탕정면로,125,3,4.42003E+24,,충청남도 아산시 탕정면 탕정면로 125-3,336841,31457,,1,,127.0686346,36.80308181
MA0101202303A0038415,씨티화훼,,G2,소매,G219,식물 소매,G21901,꽃집,G47851,화초 및 식물 소매업,44,충청남도,44230,논산시,44230520,부창동,4423010400,부창동,4.42301E+18,1,대지,399,5,충청남도 논산시 부창동 399-5,4.42305E+11,충청남도 논산시 해월로9번길,3,9,4.42301E+24,,충청남도 논산시 해월로9번길 3-9,320080,32957,,1,,127.0753694,36.19282231
MA0101202303A0045817,예원꽃집,,G2,소매,G219,식물 소매,G21901,꽃집,G47851,화초 및 식물 소매업,44,충청남도,44210,서산시,44210525,동문1동,4421010200,동문동,4.42101E+18,1,대지,486,5,충청남도 서산시 동문동 486-5,4.42103E+11,충청남도 서산시 학동6로,9,2,4.42101E+24,,충청남도 서산시 학동6로 9-2,356802,31968,,,,126.4575027,36.78884342
MA0101202303A0068740,어쩌다꽃집,,G2,소매,G219,식물 소매,G21901,꽃집,G47851,화초 및 식물 소매업,44,충청남도,44210,서산시,44210370,음암면,4421037021,음암면,4.42104E+18,1,대지,1583,2,충청남도 서산시 음암면 도당리 1583-2,4.42103E+11,충청남도 서산시 음암면 칠거리로,65,13,4.42104E+24,,충청남도 서산시 음암면 칠거리로 65-13,356841,31940,,,,126.510624,36.78792943
MA0101202303A0039932,서산수선화관광농원,,G2,소매,G219,식물 소매,G21901,꽃집,G47851,화초 및 식물 소매업,44,충청남도,44210,서산시,44210380,운산면,4421038034,운산면,4.42104E+18,1,대지,203,1,충청남도 서산시 운산면 여미리 203-1,4.42105E+11,충청남도 서산시 운산면 이문안길,72,10,4.42104E+24,,충청남도 서산시 운산면 이문안길 72-10,356834,31943,,,,126.5733606,36.82468376
MA0101202310A0003485,플라워링플뢰르,,G2,소매,G219,식물 소매,G21901,꽃집,G47851,화초 및 식물 소매업,44,충청남도,44200,아산시,44200253,배방읍,4420025325,배방읍,4.42003E+18,1,대지,1616,,충청남도 아산시 배방읍 북수리 1616,4.42005E+11,충청남도 아산시 배방읍 월천2길,119,7,4.42003E+24,,충청남도 아산시 배방읍 월천2길 119-7,336851,31494,,,,127.0806145,36.77204892
MA0101202310A0015822,이곳;이꽃,,G2,소매,G219,식물 소매,G21901,꽃집,G47851,화초 및 식물 소매업,44,충청남도,44131,천안시 동남구,44131590,신안동,4413111800,신부동,4.41311E+18,1,대지,82,4,충청남도 천안시 동남구 신부동 82-4,4.41313E+11,충청남도 천안시 동남구 충절로,47,,4.41311E+24,백합빌딩,충청남도 천안시 동남구 충절로 47,330990,31125,,1,,127.158539,36.81469236
MA0101202308A0038649,연화목,,G2,소매,G219,식물 소매,G21901,꽃집,G47851,화초 및 식물 소매업,44,충청남도,44133,천안시 서북구,44133560,백석동,4413310300,백석동,4.41331E+18,1,대지,1157,,충청남도 천안시 서북구 백석동 1157,4.41333E+11,충청남도 천안시 서북구 한들2로,34,30,4.41331E+24,,충청남도 천안시 서북구 한들2로 34-30,331220,31097,,,,127.1216301,36.82688279
MA0101202308A0012398,부원골야생화,,G2,소매,G219,식물 소매,G21901,꽃집,G47851,화초 및 식물 소매업,44,충청남도,44150,공주시,44150250,유구읍,4415025037,유구읍,4.41503E+18,1,대지,430,,충청남도 공주시 유구읍 동해리 430,4.41503E+11,충청남도 공주시 유구읍 부곡산성로,393,,4.41503E+24,오바마팬션,충청남도 공주시 유구읍 부곡산성로 393,314891,32501,,1,,127.0209807,36.61106061
MA0101202308A0035658,아뜰리에브리에,,G2,소매,G219,식물 소매,G21901,꽃집,G47851,화초 및 식물 소매업,44,충청남도,44133,천안시 서북구,44133566,불당1동,4413310800,불당동,4.41331E+18,1,대지,925,,충청남도 천안시 서북구 불당동 925,4.41333E+11,충청남도 천안시 서북구 불당11로,17,,4.41331E+24,수쿠터,충청남도 천안시 서북구 불당11로 17,331984,31164,,,,127.1082263,36.80458426
MA0101202307A0059692,글린트플라워,,G2,소매,G219,식물 소매,G21901,꽃집,G47851,화초 및 식물 소매업,44,충청남도,44133,천안시 서북구,44133590,부성2동,4413310400,두정동,4.41331E+18,1,대지,1028,,충청남도 천안시 서북구 두정동 1028,4.41335E+11,충청남도 천안시 서북구 부성2길,34,,4.41331E+24,FM오피스텔,충청남도 천안시 서북구 부성2길 34,331960,31100,,,,127.137688,36.83671438
MA0101202307A0095229,아미플라워,,G2,소매,G219,식물 소매,G21901,꽃집,G47851,화초 및 식물 소매업,44,충청남도,44200,아산시,44200620,온양6동,4420011100,풍기동,4.42001E+18,1,대지,184,5,충청남도 아산시 풍기동 184-5,4.42003E+11,충청남도 아산시 온천대로,1694,6,4.42001E+24,,충청남도 아산시 온천대로 1694-6,336060,31528,,,,127.024823,36.77611966
MA0101202310A0034579,루미에르서산꽃집,,G2,소매,G219,식물 소매,G21901,꽃집,G47851,화초 및 식물 소매업,44,충청남도,44210,서산시,44210525,동문1동,4421010200,동문동,4.42101E+18,1,대지,725,1,충청남도 서산시 동문동 725-1,4.42103E+11,충청남도 서산시 서령로,6,,4.42101E+24,,충청남도 서산시 서령로 6,356802,31982,,1,,126.4523503,36.78395385
MA0101202306A0107772,플리오름,,G2,소매,G219,식물 소매,G21901,꽃집,G47851,화초 및 식물 소매업,44,충청남도,44200,아산시,44200330,탕정면,4420033025,탕정면,4.42003E+18,1,대지,1238,,충청남도 아산시 탕정면 매곡리 1238,4.42003E+11,충청남도 아산시 탕정면 한들물빛4로,8,,4.42003E+24,,충청남도 아산시 탕정면 한들물빛4로 8,336843,31465,,1,,127.0827357,36.78629411
MA0101202307A0026850,꽃리,,G2,소매,G219,식물 소매,G21901,꽃집,G47851,화초 및 식물 소매업,44,충청남도,44200,아산시,44200330,탕정면,4420033025,탕정면,4.42003E+18,1,대지,1309,,충청남도 아산시 탕정면 매곡리 1309,4.42005E+11,충청남도 아산시 탕정면 매곡한들10길,8,,4.42003E+24,,충청남도 아산시 탕정면 매곡한들10길 8,336843,31465,,,,127.0817251,36.78411411
MA0101202307A0015720,플래뉴얼랩,,G2,소매,G219,식물 소매,G21901,꽃집,G47851,화초 및 식물 소매업,44,충청남도,44200,아산시,44200253,배방읍,4420025325,배방읍,4.42003E+18,1,대지,1729,,충청남도 아산시 배방읍 북수리 1729,4.42005E+11,충청남도 아산시 배방읍 월천8길,9,12,4.42003E+24,,충청남도 아산시 배방읍 월천8길 9-12,336851,31494,,,,127.0738922,36.77032314
MA0101202406A0155411,리타니플라워스튜디오),,G2,소매,G219,식물 소매,G21901,꽃집,G47851,화초 및 식물 소매업,44,충청남도,44131,천안시 동남구,44131510,중앙동,4413110400,사직동,4.41311E+18,1,대지,263,7,충청남도 천안시 동남구 사직동 263-7,4.41315E+11,충청남도 천안시 동남구 사직4길,3,,4.41311E+24,,충청남도 천안시 동남구 사직4길 3,330040,31130,,,,127.1481216,36.80001769
MA0101202406A0146967,푸른,,G2,소매,G219,식물 소매,G21901,꽃집,G47851,화초 및 식물 소매업,44,충청남도,44131,천안시 동남구,44131360,병천면,4413136024,병천면,4.41314E+18,1,대지,233,1,충청남도 천안시 동남구 병천면 도원리 233-1,4.41315E+11,충청남도 천안시 동남구 병천면 도원리1길,52,6,4.41314E+24,,충청남도 천안시 동남구 병천면 도원리1길 52-6,330862,31255,,,,127.319963,36.77817904
MA0101202406A0037603,테레사플라워,,G2,소매,G219,식물 소매,G21901,꽃집,G47851,화초 및 식물 소매업,44,충청남도,44131,천안시 동남구,44131570,신방동,4413111600,신방동,4.41311E+18,1,대지,6,6,충청남도 천안시 동남구 신방동 6-6,4.41312E+11,충청남도 천안시 동남구 서부대로,257,3,4.41311E+24,성대빌딩,충청남도 천안시 동남구 서부대로 257-3,330938,31176,,2,,127.1285648,36.79110139
MA0101202406A0042328,한울농원,,G2,소매,G219,식물 소매,G21901,꽃집,G47851,화초 및 식물 소매업,44,충청남도,44810,예산군,44810390,신암면,4481039030,신암면,4.48104E+18,1,대지,44,12,충청남도 예산군 신암면 조곡리 44-12,4.48103E+11,충청남도 예산군 신암면 황금뜰로,1063,7,4.48104E+24,,충청남도 예산군 신암면 황금뜰로 1063-7,340864,32420,,,,126.7906937,36.72333081
MA0101202406A0112080,산인물농원,,G2,소매,G219,식물 소매,G21901,꽃집,G47851,화초 및 식물 소매업,44,충청남도,44270,당진시,44270350,면천면,4427035021,면천면,4.42704E+18,1,대지,1065,,충청남도 당진시 면천면 성상리 1065,4.42705E+11,충청남도 당진시 면천면 몽산길,73,,4.48304E+24,,충청남도 당진시 면천면 몽산길 73,343884,31804,,,,126.6641838,36.82236175
MA0101202406A0100212,조이풀가든,,G2,소매,G219,식물 소매,G21901,꽃집,G47851,화초 및 식물 소매업,44,충청남도,44131,천안시 동남구,44131570,신방동,4413111600,신방동,4.41311E+18,1,대지,1123,,충청남도 천안시 동남구 신방동 1123,4.41313E+11,충청남도 천안시 동남구 통정1로,32,11,4.41311E+24,,충청남도 천안시 동남구 통정1로 32-11,330940,31204,,,,127.1306241,36.77660022
MA0101202406A0051610,파크베르시,,G2,소매,G219,식물 소매,G21901,꽃집,G47851,화초 및 식물 소매업,44,충청남도,44270,당진시,44270253,송악읍,4427025333,송악읍,4.42703E+18,1,대지,1630,1,충청남도 당진시 송악읍 복운리 1630-1,4.42703E+11,충청남도 당진시 송악읍 신복운로,49,,4.48303E+24,송악프라자,충청남도 당진시 송악읍 신복운로 49,343827,31724,,,,126.7800723,36.94201008
MA0101202311A0088356,퍼니비플라워,,G2,소매,G219,식물 소매,G21901,꽃집,G47851,화초 및 식물 소매업,44,충청남도,44133,천안시 서북구,44133566,불당1동,4413310800,불당동,4.41331E+18,1,대지,968,,충청남도 천안시 서북구 불당동 968,4.41335E+11,충청남도 천안시 서북구 불당1길,52,,4.41331E+24,,충청남도 천안시 서북구 불당1길 52,331984,31164,,1,,127.1081469,36.80391751
MA0101202311A0080223,플란타,,G2,소매,G219,식물 소매,G21901,꽃집,G47851,화초 및 식물 소매업,44,충청남도,44230,논산시,44230510,취암동,4423010900,내동,4.42301E+18,1,대지,26,,충청남도 논산시 내동 26,4.42303E+11,충청남도 논산시 대학로,121,,4.42301E+24,건양대학교,충청남도 논산시 대학로 121,320711,32992,,,,127.1097538,36.18217953
MA0101202311A0072259,풀꽃,,G2,소매,G219,식물 소매,G21901,꽃집,G47851,화초 및 식물 소매업,44,충청남도,44131,천안시 동남구,44131580,청룡동,4413111100,청당동,4.41311E+18,1,대지,143,25,충청남도 천안시 동남구 청당동 143-25,4.41315E+11,충청남도 천안시 동남구 청당2길,123,,4.41311E+24,,충청남도 천안시 동남구 청당2길 123,330270,31211,,,,127.1567653,36.78024519
MA0101202311A0055469,아방가르드,,G2,소매,G219,식물 소매,G21901,꽃집,G47851,화초 및 식물 소매업,44,충청남도,44200,아산시,44200410,신창면,4420041022,신창면,4.42004E+18,1,대지,480,,충청남도 아산시 신창면 읍내리 480,4.42003E+11,충청남도 아산시 신창면 온천대로,834,,4.42004E+24,,충청남도 아산시 신창면 온천대로 834,336885,31537,,,,126.9349732,36.77705065
MA0101202311A0012104,범스플라워샵,,G2,소매,G219,식물 소매,G21901,꽃집,G47851,화초 및 식물 소매업,44,충청남도,44133,천안시 서북구,44133590,부성2동,4413310400,두정동,4.41331E+18,1,대지,997,,충청남도 천안시 서북구 두정동 997,4.41335E+11,충청남도 천안시 서북구 부성5길,21,,4.41331E+24,소현상가,충청남도 천안시 서북구 부성5길 21,331960,31100,,1,,127.1353542,36.83559068
MA0101202311A0005174,토야공방,,G2,소매,G219,식물 소매,G21901,꽃집,G47851,화초 및 식물 소매업,44,충청남도,44133,천안시 서북구,44133253,성거읍,4413325325,성거읍,4.41333E+18,1,대지,224,,충청남도 천안시 서북구 성거읍 저리 224,4.41335E+11,충청남도 천안시 서북구 성거읍 오송2길,73,,4.41333E+24,,충청남도 천안시 서북구 성거읍 오송2길 73,331836,31045,,,,127.2008061,36.88491459
MA0101202406A0316242,오네O-neflower,,G2,소매,G219,식물 소매,G21901,꽃집,G47851,화초 및 식물 소매업,44,충청남도,44210,서산시,44210550,석남동,4421010900,예천동,4.42101E+18,1,대지,1561,,충청남도 서산시 예천동 1561,4.42103E+11,충청남도 서산시 예천4로,19,8,4.42101E+24,,충청남도 서산시 예천4로 19-8,356110,32005,,,,126.4491798,36.76674614
MA0101202406A0317804,알로하플레르,,G2,소매,G219,식물 소매,G21901,꽃집,G47851,화초 및 식물 소매업,44,충청남도,44200,아산시,44200253,배방읍,4420025324,배방읍,4.42003E+18,1,대지,1669,,충청남도 아산시 배방읍 공수리 1669,4.42003E+11,충청남도 아산시 배방읍 배방로,25,,4.42003E+24,장호빌딩,충청남도 아산시 배방읍 배방로 25,336852,31482,,1,,127.0548986,36.77457768
MA0101202406A0396472,해창조경수,,G2,소매,G219,식물 소매,G21901,꽃집,G47851,화초 및 식물 소매업,44,충청남도,44180,보령시,44180410,주교면,4418041025,주교면,4.41804E+18,1,대지,778,11,충청남도 보령시 주교면 관창리 778-11,4.41805E+11,충청남도 보령시 주교면 해창길,44,,4.41804E+24,,충청남도 보령시 주교면 해창길 44,355922,33447,,,,126.568717,36.36944007
MA0101202406A0300215,그루아즈,,G2,소매,G219,식물 소매,G21901,꽃집,G47851,화초 및 식물 소매업,44,충청남도,44810,예산군,44810250,예산읍,4481025030,예산읍,4.48103E+18,1,대지,461,1,충청남도 예산군 예산읍 신례원리 461-1,4.48103E+11,충청남도 예산군 예산읍 벚꽃로,433,11,4.48103E+24,,충청남도 예산군 예산읍 벚꽃로 433-11,340805,32422,,,,126.8438535,36.71813183
MA0101202406A0235073,다육뜰마루,,G2,소매,G219,식물 소매,G21901,꽃집,G47851,화초 및 식물 소매업,44,충청남도,44230,논산시,44230350,부적면,4423035025,부적면,4.42304E+18,1,대지,61,14,충청남도 논산시 부적면 감곡리 61-14,4.42305E+11,충청남도 논산시 부적면 감곡1길,34,,4.42304E+24,,충청남도 논산시 부적면 감곡1길 34,320861,32916,,,,127.1701273,36.20764905
MA0101202406A0478466,송선돌농원,,G2,소매,G219,식물 소매,G21901,꽃집,G47851,화초 및 식물 소매업,44,충청남도,44150,공주시,44150590,월송동,4415012600,송선동,4.41501E+18,1,대지,86,,충청남도 공주시 송선동 86,4.41503E+11,충청남도 공주시 장척로,139,,4.41501E+24,,충청남도 공주시 장척로 139,314120,32590,,,,127.1805677,36.48684637
MA0101202406A0470348,엉터리다육맘농원,,G2,소매,G219,식물 소매,G21901,꽃집,G47851,화초 및 식물 소매업,44,충청남도,44131,천안시 동남구,44131530,원성1동,4413110700,원성동,4.41311E+18,1,대지,11,33,충청남도 천안시 동남구 원성동 11-33,4.41315E+11,충청남도 천안시 동남구 원성25길,33,,4.41311E+24,,충청남도 천안시 동남구 원성25길 33,330951,31125,,,,127.1636027,36.81373033
MA0101202408A0023708,그린리플라워,,G2,소매,G219,식물 소매,G21901,꽃집,G47851,화초 및 식물 소매업,44,충청남도,44200,아산시,44200253,배방읍,4420025329,배방읍,4.42003E+18,1,대지,1606,,충청남도 아산시 배방읍 세교리 1606,4.42003E+11,충청남도 아산시 배방읍 동방로,219,,4.42003E+24,아산배방9단지,충청남도 아산시 배방읍 동방로 219,336855,31473,,1,,127.0901626,36.77607006
MA0101202408A0038828,꽃피우다,,G2,소매,G219,식물 소매,G21901,꽃집,G47851,화초 및 식물 소매업,44,충청남도,44200,아산시,44200580,온양2동,4420010100,온천동,4.42001E+18,1,대지,2895,,충청남도 아산시 온천동 2895,4.42005E+11,충청남도 아산시 온화로83번길,4,6,4.42001E+24,,충청남도 아산시 온화로83번길 4-6,336012,31574,,1,,127.0070908,36.77678886
MA0101202408A0034867,가든플라워,,G2,소매,G219,식물 소매,G21901,꽃집,G47851,화초 및 식물 소매업,44,충청남도,44200,아산시,44200360,둔포면,4420036030,둔포면,4.42004E+18,1,대지,317,12,충청남도 아산시 둔포면 봉재리 317-12,4.42003E+11,충청남도 아산시 둔포면 충무로,1222,10,4.42004E+24,,충청남도 아산시 둔포면 충무로 1222-10,336873,31411,,,,127.0310713,36.88138567
MA0101202408A0018774,향기다육농원,,G2,소매,G219,식물 소매,G21901,꽃집,G47851,화초 및 식물 소매업,44,충청남도,44200,아산시,44200253,배방읍,4420025332,배방읍,4.42003E+18,1,대지,819,,충청남도 아산시 배방읍 구령리 819,4.42005E+11,충청남도 아산시 배방읍 구령서길,11,13,4.42003E+24,,충청남도 아산시 배방읍 구령서길 11-13,336852,31477,,,,127.0397424,36.77352039
MA0101202408A0029597,오케이화원,,G2,소매,G219,식물 소매,G21901,꽃집,G47851,화초 및 식물 소매업,44,충청남도,44210,서산시,44210510,부춘동,4421010100,읍내동,4.42101E+18,1,대지,139,9,충청남도 서산시 읍내동 139-9,4.42103E+11,충청남도 서산시 번화2로,4,2,4.42101E+24,,충청남도 서산시 번화2로 4-2,356805,31984,,,,126.4494197,36.78019174
MA0101202408A0053920,성연화환꽃배달,,G2,소매,G219,식물 소매,G21901,꽃집,G47851,화초 및 식물 소매업,44,충청남도,44210,서산시,44210360,성연면,4421036022,성연면,4.42104E+18,1,대지,113,,충청남도 서산시 성연면 고남리 113,4.42103E+11,충청남도 서산시 성연면 충의로,567,23,4.42104E+24,,충청남도 서산시 성연면 충의로 567-23,356852,31933,,2,,126.4398121,36.82274189
MA0101202408A0064459,엘에스농원,,G2,소매,G219,식물 소매,G21901,꽃집,G47851,화초 및 식물 소매업,44,충청남도,44200,아산시,44200400,도고면,4420040036,도고면,4.42004E+18,1,대지,22,2,충청남도 아산시 도고면 기곡리 22-2,4.42003E+11,충청남도 아산시 도고면 도고온천로,138,,4.42004E+24,,충청남도 아산시 도고면 도고온천로 138,336912,31547,,,,126.8890755,36.76404964
MA0101202409A0059167,플로렌티스,,G2,소매,G219,식물 소매,G21901,꽃집,G47851,화초 및 식물 소매업,44,충청남도,44710,금산군,44710250,금산읍,4471025022,금산읍,4.47103E+18,1,대지,224,2,충청남도 금산군 금산읍 중도리 224-2,4.47103E+11,충청남도 금산군 금산읍 비호로,89,7,4.47103E+24,고도빌리지2차,충청남도 금산군 금산읍 비호로 89-7,312806,32734,,1,,127.4926692,36.10692101
MA0101202409A0037199,늘푸르게,,G2,소매,G219,식물 소매,G21901,꽃집,G47851,화초 및 식물 소매업,44,충청남도,44810,예산군,44810250,예산읍,4481025025,예산읍,4.48103E+18,1,대지,708,1,충청남도 예산군 예산읍 산성리 708-1,4.48103E+11,충청남도 예산군 예산읍 역전로,156,,4.48103E+24,,충청남도 예산군 예산읍 역전로 156,340803,32429,,1,,126.8303647,36.69307108
MA0101202408A0008952,유릴리,,G2,소매,G219,식물 소매,G21901,꽃집,G47851,화초 및 식물 소매업,44,충청남도,44200,아산시,44200253,배방읍,4420025331,배방읍,4.42003E+18,1,대지,1779,,충청남도 아산시 배방읍 장재리 1779,4.42002E+11,충청남도 아산시 배방읍 고속철대로,77,,4.42003E+24,,충청남도 아산시 배방읍 고속철대로 77,336857,31470,,,,127.1074568,36.79123047
MA0101202408A0017127,밀리스플라워,,G2,소매,G219,식물 소매,G21901,꽃집,G47851,화초 및 식물 소매업,44,충청남도,44200,아산시,44200410,신창면,4420041022,신창면,4.42004E+18,1,대지,280,1,충청남도 아산시 신창면 읍내리 280-1,4.42003E+11,충청남도 아산시 신창면 서부남로,844,,4.42004E+24,,충청남도 아산시 신창면 서부남로 844,336885,31536,,,,126.934792,36.77940246
MA0101202408A0009456,디아,,G2,소매,G219,식물 소매,G21901,꽃집,G47851,화초 및 식물 소매업,44,충청남도,44200,아산시,44200253,배방읍,4420025331,배방읍,4.42003E+18,1,대지,1794,,충청남도 아산시 배방읍 장재리 1794,4.42002E+11,충청남도 아산시 배방읍 고속철대로,57,,4.42003E+24,일부,충청남도 아산시 배방읍 고속철대로 57,336857,31470,,1,,127.1078578,36.78956305
MA0101202408A0015085,정다운꽃집,,G2,소매,G219,식물 소매,G21901,꽃집,G47851,화초 및 식물 소매업,44,충청남도,44200,아산시,44200600,온양4동,4420010300,방축동,4.42001E+18,1,대지,101,4,충청남도 아산시 방축동 101-4,4.42003E+11,충청남도 아산시 온천대로,1336,,4.42001E+24,,충청남도 아산시 온천대로 1336,336070,31500,,,,126.9869374,36.78446586
MA0101202409A0157094,웨일플라워,,G2,소매,G219,식물 소매,G21901,꽃집,G47851,화초 및 식물 소매업,44,충청남도,44200,아산시,44200330,탕정면,4420033025,탕정면,4.42003E+18,1,대지,1457,,충청남도 아산시 탕정면 매곡리 1457,4.42005E+11,충청남도 아산시 탕정면 매곡한들3길,7,,4.42003E+24,,충청남도 아산시 탕정면 매곡한들3길 7,336843,31465,,,,127.0896654,36.78196373
MA0101202406A0505275,큰시장미래종묘사,,G2,소매,G219,식물 소매,G21901,꽃집,G47851,화초 및 식물 소매업,44,충청남도,44800,홍성군,44800250,홍성읍,4480025022,홍성읍,4.48003E+18,1,대지,404,11,충청남도 홍성군 홍성읍 대교리 404-11,4.48005E+11,충청남도 홍성군 홍성읍 의사로49번길,62,,4.48003E+24,,충청남도 홍성군 홍성읍 의사로49번길 62,350805,32221,,,,126.6679336,36.60245352
MA0101202410A0186611,파주농원,,G2,소매,G219,식물 소매,G21901,꽃집,G47851,화초 및 식물 소매업,44,충청남도,44710,금산군,44710370,진산면,4471037032,진산면,4.47104E+18,1,대지,333,2,충청남도 금산군 진산면 지방리 333-2,4.47105E+11,충청남도 금산군 진산면 재실말길,5,,4.47104E+24,,충청남도 금산군 진산면 재실말길 5,312932,32700,,,,127.3541189,36.18002987
MA0101202410A0202252,그린리프,,G2,소매,G219,식물 소매,G21901,꽃집,G47851,화초 및 식물 소매업,44,충청남도,44131,천안시 동남구,44131580,청룡동,4413111100,청당동,4.41311E+18,1,대지,781,,충청남도 천안시 동남구 청당동 781,4.41313E+11,충청남도 천안시 동남구 청수7로,13,3,4.41311E+24,까사리움빌,충청남도 천안시 동남구 청수7로 13-3,330270,31197,,,,127.1604132,36.78367357
MA0101202410A0208904,루나리스,,G2,소매,G219,식물 소매,G21901,꽃집,G47851,화초 및 식물 소매업,44,충청남도,44270,당진시,44270253,송악읍,4427025333,송악읍,4.42703E+18,1,대지,1640,1,충청남도 당진시 송악읍 복운리 1640-1,4.42705E+11,충청남도 당진시 송악읍 신복운로7길,4,,4.48303E+24,신성빌딩,충청남도 당진시 송악읍 신복운로7길 4,343827,31724,,1,,126.782478,36.94084309
MA0101202410A0179658,유플라워,,G2,소매,G219,식물 소매,G21901,꽃집,G47851,화초 및 식물 소매업,44,충청남도,44770,서천군,44770253,서천읍,4477025333,서천읍,4.47703E+18,1,대지,325,2,충청남도 서천군 서천읍 남산리 325-2,4.47703E+11,충청남도 서천군 서천읍 남산로,215,,4.47703E+24,,충청남도 서천군 서천읍 남산로 215,325801,33648,,,,126.6812831,36.06813588
MA0101202410A0206751,블라썸,,G2,소매,G219,식물 소매,G21901,꽃집,G47851,화초 및 식물 소매업,44,충청남도,44810,예산군,44810250,예산읍,4481025025,예산읍,4.48103E+18,1,대지,650,,충청남도 예산군 예산읍 산성리 650,4.48105E+11,충청남도 예산군 예산읍 벚꽃로155번길,19,,4.48103E+24,,충청남도 예산군 예산읍 벚꽃로155번길 19,340803,32428,,1,,126.8344014,36.69435637
MA0101202410A0194616,금산꽃화원,,G2,소매,G219,식물 소매,G21901,꽃집,G47851,화초 및 식물 소매업,44,충청남도,44710,금산군,44710360,남이면,4471036029,남이면,4.47104E+18,1,대지,687,1,충청남도 금산군 남이면 석동리 687-1,4.47105E+11,충청남도 금산군 남이면 보석사1길,12,,4.47104E+24,,충청남도 금산군 남이면 보석사1길 12,312894,32752,,,,127.4776098,36.05187287
MA0101202410A0037368,백제화원,,G2,소매,G219,식물 소매,G21901,꽃집,G47851,화초 및 식물 소매업,44,충청남도,44230,논산시,44230510,취암동,4423010100,화지동,4.42301E+18,1,대지,18,3,충청남도 논산시 화지동 18-3,4.42305E+11,충청남도 논산시 해월로249번길,12,3,4.42301E+24,,충청남도 논산시 해월로249번길 12-3,320802,32964,,1,,127.0932232,36.21003173
MA0101202410A0054816,정지숙플라워아트,,G2,소매,G219,식물 소매,G21901,꽃집,G47851,화초 및 식물 소매업,44,충청남도,44133,천안시 서북구,44133550,쌍용3동,4413310700,쌍용동,4.41331E+18,1,대지,1954,,충청남도 천안시 서북구 쌍용동 1954,4.41333E+11,충청남도 천안시 서북구 월봉로,128,,4.41331E+24,시설물知&美빌딩,충청남도 천안시 서북구 월봉로 128,331956,31166,,,,127.1190473,36.8021229
MA0101202410A0048168,동원종묘,,G2,소매,G219,식물 소매,G21901,꽃집,G47851,화초 및 식물 소매업,44,충청남도,44230,논산시,44230510,취암동,4423010100,화지동,4.42301E+18,1,대지,41,38,충청남도 논산시 화지동 41-38,4.42305E+11,충청남도 논산시 중앙로497번길,2,,4.42301E+24,,충청남도 논산시 중앙로497번길 2,320802,32950,,,,127.0826334,36.20713764
MA0101202410A0061492,나비플로라,,G2,소매,G219,식물 소매,G21901,꽃집,G47851,화초 및 식물 소매업,44,충청남도,44131,천안시 동남구,44131580,청룡동,4413111100,청당동,4.41311E+18,1,대지,586,,충청남도 천안시 동남구 청당동 586,4.41313E+11,충청남도 천안시 동남구 청수6로,35,26,4.41311E+24,,충청남도 천안시 동남구 청수6로 35-26,330270,31198,,1,,127.1577615,36.78529913
MA0101202410A0056044,트리마켓,,G2,소매,G219,식물 소매,G21901,꽃집,G47851,화초 및 식물 소매업,44,충청남도,44133,천안시 서북구,44133256,직산읍,4413325626,직산읍,4.41333E+18,1,대지,556,,충청남도 천안시 서북구 직산읍 삼은리 556,4.41332E+11,충청남도 천안시 서북구 직산읍 천안대로,1654,4,4.41333E+24,,충청남도 천안시 서북구 직산읍 천안대로 1654-4,331816,31031,,,,127.1422102,36.88748619
MA0101202410A0062244,하베,,G2,소매,G219,식물 소매,G21901,꽃집,G47851,화초 및 식물 소매업,44,충청남도,44133,천안시 서북구,44133560,백석동,4413310300,백석동,4.41331E+18,1,대지,302,1,충청남도 천안시 서북구 백석동 302-1,4.41333E+11,충청남도 천안시 서북구 백석로,17,9,4.41331E+24,웅진빌딩,충청남도 천안시 서북구 백석로 17-9,331979,31095,,,,127.1142158,36.82345692
MA0101202409A0210084,위드힐링원예,,G2,소매,G219,식물 소매,G21901,꽃집,G47851,화초 및 식물 소매업,44,충청남도,44131,천안시 동남구,44131540,원성2동,4413110700,원성동,4.41311E+18,1,대지,648,14,충청남도 천안시 동남구 원성동 648-14,4.41315E+11,충청남도 천안시 동남구 고재9길,17,,4.41311E+24,,충청남도 천안시 동남구 고재9길 17,330954,31187,,1,,127.1632923,36.79952024
MA0101202410A0101863,여우숲정원,,G2,소매,G219,식물 소매,G21901,꽃집,G47851,화초 및 식물 소매업,44,충청남도,44770,서천군,44770410,서면,4477041029,서면,4.47704E+18,1,대지,338,3,충청남도 서천군 서면 주항리 338-3,4.47703E+11,충청남도 서천군 서면 서인로,1044,8,4.47704E+24,봉하마을,충청남도 서천군 서면 서인로 1044-8,325891,33601,,1,,126.5768146,36.15139077
MA0101202410A0068352,플라워제이,,G2,소매,G219,식물 소매,G21901,꽃집,G47851,화초 및 식물 소매업,44,충청남도,44133,천안시 서북구,44133530,쌍용1동,4413310700,쌍용동,4.41331E+18,1,대지,384,7,충청남도 천안시 서북구 쌍용동 384-7,4.41332E+11,충청남도 천안시 서북구 쌍용대로,15,,4.41331E+24,,충청남도 천안시 서북구 쌍용대로 15,331946,31155,,,,127.1306622,36.79901088
MA0101202410A0108816,더민트,,G2,소매,G219,식물 소매,G21901,꽃집,G47851,화초 및 식물 소매업,44,충청남도,44270,당진시,44270510,당진1동,4427010100,읍내동,4.42701E+18,1,대지,1056,,충청남도 당진시 읍내동 1056,4.42703E+11,충청남도 당진시 시청1로,80,,4.42701E+24,화암빌딩,충청남도 당진시 시청1로 80,343925,31772,,1,,126.6388205,36.89120347
MA0101202410A0077735,이레플라워,,G2,소매,G219,식물 소매,G21901,꽃집,G47851,화초 및 식물 소매업,44,충청남도,44133,천안시 서북구,44133540,쌍용2동,4413310700,쌍용동,4.41331E+18,1,대지,1561,,충청남도 천안시 서북구 쌍용동 1561,4.41335E+11,충청남도 천안시 서북구 월봉7길,77,,4.41331E+24,월봉청솔2차,충청남도 천안시 서북구 월봉7길 77,331792,31171,,1,,127.115404,36.79364702
MA0101202409A0268964,샘골조경수농원,,G2,소매,G219,식물 소매,G21901,꽃집,G47851,화초 및 식물 소매업,44,충청남도,44825,태안군,44825350,원북면,4482535026,원북면,4.48254E+18,1,대지,34,1,충청남도 태안군 원북면 동해리 34-1,4.48253E+11,충청남도 태안군 원북면 대동로,248,48,4.48254E+24,,충청남도 태안군 원북면 대동로 248-48,357912,32113,,,,126.242225,36.80526507
MA0101202410A0004429,늘꽃,,G2,소매,G219,식물 소매,G21901,꽃집,G47851,화초 및 식물 소매업,44,충청남도,44790,청양군,44790250,청양읍,4479025021,청양읍,4.47903E+18,1,대지,289,5,충청남도 청양군 청양읍 읍내리 289-5,4.47903E+11,충청남도 청양군 청양읍 문화예술로,109,,4.47903E+24,,충청남도 청양군 청양읍 문화예술로 109,345804,33338,,,,126.7981925,36.44905368
MA0101202410A0005363,다향촌,,G2,소매,G219,식물 소매,G21901,꽃집,G47851,화초 및 식물 소매업,44,충청남도,44131,천안시 동남구,44131340,성남면,4413134024,성남면,4.41313E+18,1,대지,221,2,충청남도 천안시 동남구 성남면 대정리 221-2,4.41315E+11,충청남도 천안시 동남구 성남면 대정1길,45,,4.41313E+24,,충청남도 천안시 동남구 성남면 대정1길 45,330891,31247,,1,,127.2111016,36.72487757
MA0101202410A0006356,가온,,G2,소매,G219,식물 소매,G21901,꽃집,G47851,화초 및 식물 소매업,44,충청남도,44131,천안시 동남구,44131570,신방동,4413111500,용곡동,4.41311E+18,1,대지,182,1,충청남도 천안시 동남구 용곡동 182-1,4.41312E+11,충청남도 천안시 동남구 남부대로,169,,4.41311E+24,,충청남도 천안시 동남구 남부대로 169,330939,31203,,,,127.1355556,36.78449748
MA0101202410A0231783,한아름플라워스튜디오,,G2,소매,G219,식물 소매,G21901,꽃집,G47851,화초 및 식물 소매업,44,충청남도,44230,논산시,44230510,취암동,4423010500,취암동,4.42301E+18,1,대지,546,22,충청남도 논산시 취암동 546-22,4.42303E+11,충청남도 논산시 부창로,103,,4.42301E+24,,충청남도 논산시 부창로 103,320804,32954,,,,127.0893151,36.19605705
MA0101202410A0248989,효성플라워,,G2,소매,G219,식물 소매,G21901,꽃집,G47851,화초 및 식물 소매업,44,충청남도,44810,예산군,44810250,예산읍,4481025030,예산읍,4.48103E+18,1,대지,422,2,충청남도 예산군 예산읍 신례원리 422-2,4.48105E+11,충청남도 예산군 예산읍 벚꽃로464번길,28,2,4.48103E+24,,충청남도 예산군 예산읍 벚꽃로464번길 28-2,340805,32422,,,,126.8484972,36.7189128
MA0101202410A0260888,꽃향유LOVE,,G2,소매,G219,식물 소매,G21901,꽃집,G47851,화초 및 식물 소매업,44,충청남도,44133,천안시 서북구,44133567,불당2동,4413310800,불당동,4.41331E+18,1,대지,1492,,충청남도 천안시 서북구 불당동 1492,4.41333E+11,충청남도 천안시 서북구 불당26로,144,,4.41331E+24,불당파크푸르지오1단지,충청남도 천안시 서북구 불당26로 144,331230,31156,,1,,127.1083286,36.82156109
MA0101202410A0219332,다래랑다육,,G2,소매,G219,식물 소매,G21901,꽃집,G47851,화초 및 식물 소매업,44,충청남도,44760,부여군,44760320,은산면,4476032027,은산면,4.47603E+18,1,대지,462,,충청남도 부여군 은산면 나령리 462,4.47605E+11,충청남도 부여군 은산면 충절로나령2길,80,,4.47603E+24,,충청남도 부여군 은산면 충절로나령2길 80,323823,33106,,,,126.779773,36.34361103
MA0101202410A0255785,엠에스농장,,G2,소매,G219,식물 소매,G21901,꽃집,G47851,화초 및 식물 소매업,44,충청남도,44760,부여군,44760440,석성면,4476044026,석성면,4.47604E+18,1,대지,188,2,충청남도 부여군 석성면 현내리 188-2,4.47603E+11,충청남도 부여군 석성면 성내로,33,,4.47604E+24,,충청남도 부여군 석성면 성내로 33,323951,33177,,,,126.9951836,36.23040804
MA0101202410A0243448,우리들화원,,G2,소매,G219,식물 소매,G21901,꽃집,G47851,화초 및 식물 소매업,44,충청남도,44770,서천군,44770253,서천읍,4477025322,서천읍,4.47703E+18,1,대지,80,116,충청남도 서천군 서천읍 사곡리 80-116,4.47703E+11,충청남도 서천군 서천읍 사곡로,123,,4.47703E+24,,충청남도 서천군 서천읍 사곡로 123,325806,33636,,,,126.6963779,36.08302715
MA0101202410A0250659,진영화훼,,G2,소매,G219,식물 소매,G21901,꽃집,G47851,화초 및 식물 소매업,44,충청남도,44230,논산시,44230510,취암동,4423010500,취암동,4.42301E+18,1,대지,511,5,충청남도 논산시 취암동 511-5,4.42305E+11,충청남도 논산시 시민로308번길,23,,4.42301E+24,,충청남도 논산시 시민로308번길 23,320804,32978,,,,127.0936265,36.19391791
MA0101202410A0214849,사계절꽃서랍,,G2,소매,G219,식물 소매,G21901,꽃집,G47851,화초 및 식물 소매업,44,충청남도,44710,금산군,44710380,복수면,4471038028,복수면,4.47104E+18,1,대지,126,4,충청남도 금산군 복수면 신대리 126-4,4.47105E+11,충청남도 금산군 복수면 문암길,71,,4.47104E+24,,충청남도 금산군 복수면 문암길 71,312924,32701,,,,127.3835303,36.22520639
MA0101202410A0250712,지안이네,,G2,소매,G219,식물 소매,G21901,꽃집,G47851,화초 및 식물 소매업,44,충청남도,44790,청양군,44790250,청양읍,4479025021,청양읍,4.47903E+18,1,대지,182,20,충청남도 청양군 청양읍 읍내리 182-20,4.47905E+11,충청남도 청양군 청양읍 중앙로5길,9,,4.47903E+24,,충청남도 청양군 청양읍 중앙로5길 9,345804,33331,,,,126.8015148,36.44974413
MA0101202410A0219649,예아꽃방,,G2,소매,G219,식물 소매,G21901,꽃집,G47851,화초 및 식물 소매업,44,충청남도,44810,예산군,44810250,예산읍,4481025021,예산읍,4.48103E+18,1,대지,59,11,충청남도 예산군 예산읍 예산리 59-11,4.48103E+11,충청남도 예산군 예산읍 아리랑로,173,,4.48103E+24,,충청남도 예산군 예산읍 아리랑로 173,340804,32434,,,,126.8476469,36.6846689
MA0101202410A0246054,해피플라워,,G2,소매,G219,식물 소매,G21901,꽃집,G47851,화초 및 식물 소매업,44,충청남도,44810,예산군,44810250,예산읍,4481025030,예산읍,4.48103E+18,1,대지,422,2,충청남도 예산군 예산읍 신례원리 422-2,4.48105E+11,충청남도 예산군 예산읍 벚꽃로464번길,28,2,4.48103E+24,,충청남도 예산군 예산읍 벚꽃로464번길 28-2,340805,32422,,,,126.8484972,36.7189128
MA0101202410A0242543,플로어스,,G2,소매,G219,식물 소매,G21901,꽃집,G47851,화초 및 식물 소매업,44,충청남도,44800,홍성군,44800250,홍성읍,4480025026,홍성읍,4.48003E+18,1,대지,102,18,충청남도 홍성군 홍성읍 남장리 102-18,4.48005E+11,충청남도 홍성군 홍성읍 문화로72번길,95,,4.48003E+24,,충청남도 홍성군 홍성읍 문화로72번길 95,350803,32239,,,,126.6688514,36.59169647
MA0101202410A0256215,꽃희,,G2,소매,G219,식물 소매,G21901,꽃집,G47851,화초 및 식물 소매업,44,충청남도,44133,천안시 서북구,44133520,성정2동,4413310200,성정동,4.41331E+18,1,대지,648,7,충청남도 천안시 서북구 성정동 648-7,4.41335E+11,충청남도 천안시 서북구 서부14길,3,,4.41331E+24,,충청남도 천안시 서북구 서부14길 3,331973,31138,,,,127.1367765,36.82218958
MA0101202410A0214007,식물이야기,,G2,소매,G219,식물 소매,G21901,꽃집,G47851,화초 및 식물 소매업,44,충청남도,44180,보령시,44180360,남포면,4418036024,남포면,4.41804E+18,1,대지,178,17,충청남도 보령시 남포면 봉덕리 178-17,4.41803E+11,충청남도 보령시 남포면 보령남로,362,,4.41804E+24,,충청남도 보령시 남포면 보령남로 362,355882,33493,,,,126.6003577,36.31383041
MA0101202410A0218681,플로라,,G2,소매,G219,식물 소매,G21901,꽃집,G47851,화초 및 식물 소매업,44,충청남도,44150,공주시,44150570,신관동,4415012000,신관동,4.41501E+18,1,대지,246,2,충청남도 공주시 신관동 246-2,4.41503E+11,충청남도 공주시 공주대학로,94,31,4.41501E+24,,충청남도 공주시 공주대학로 94-31,314803,32582,,1,,127.1393739,36.4730057
MA0101202410A0247467,콤마인,,G2,소매,G219,식물 소매,G21901,꽃집,G47851,화초 및 식물 소매업,44,충청남도,44810,예산군,44810250,예산읍,4481025021,예산읍,4.48103E+18,1,대지,780,,충청남도 예산군 예산읍 예산리 780,4.48105E+11,충청남도 예산군 예산읍 군청로1길,28,,4.48103E+24,더퍼스트스퀘어빌딩,충청남도 예산군 예산읍 군청로1길 28,340804,32435,,,,126.8461678,36.68017036
MA0101202410A0257438,아인플로라,,G2,소매,G219,식물 소매,G21901,꽃집,G47851,화초 및 식물 소매업,44,충청남도,44800,홍성군,44800250,홍성읍,4480025021,홍성읍,4.48003E+18,1,대지,614,1,충청남도 홍성군 홍성읍 오관리 614-1,4.48003E+11,충청남도 홍성군 홍성읍 조양로,40,,4.48003E+24,,충청남도 홍성군 홍성읍 조양로 40,350818,32229,,1,,126.6585734,36.59862427
MA0101202410A0223471,MR조경,,G2,소매,G219,식물 소매,G21901,꽃집,G47851,화초 및 식물 소매업,44,충청남도,44760,부여군,44760360,홍산면,4476036028,홍산면,4.47604E+18,1,대지,378,1,충청남도 부여군 홍산면 조현리 378-1,4.47603E+11,충청남도 부여군 홍산면 조현로,59,,4.47604E+24,,충청남도 부여군 홍산면 조현로 59,323843,33203,,1,,126.7883332,36.22629169
MA0101202410A0273710,매그놀리아플라워,,G2,소매,G219,식물 소매,G21901,꽃집,G47851,화초 및 식물 소매업,44,충청남도,44270,당진시,44270520,당진2동,4427010700,대덕동,4.42701E+18,1,대지,1828,,충청남도 당진시 대덕동 1828,4.42703E+11,충청남도 당진시 대덕1로,125,18,4.42701E+24,,충청남도 당진시 대덕1로 125-18,343030,31778,,,,126.6458948,36.88489007
MA0101202410A0237182,금오화원,,G2,소매,G219,식물 소매,G21901,꽃집,G47851,화초 및 식물 소매업,44,충청남도,44810,예산군,44810250,예산읍,4481025021,예산읍,4.48103E+18,1,대지,523,2,충청남도 예산군 예산읍 예산리 523-2,4.48103E+11,충청남도 예산군 예산읍 예산로,211,,4.48103E+24,,충청남도 예산군 예산읍 예산로 211,340804,32435,,,,126.8481595,36.68006478
MA0101202410A0243049,꽃데이플라워,,G2,소매,G219,식물 소매,G21901,꽃집,G47851,화초 및 식물 소매업,44,충청남도,44131,천안시 동남구,44131570,신방동,4413111600,신방동,4.41311E+18,1,대지,1146,,충청남도 천안시 동남구 신방동 1146,4.41313E+11,충청남도 천안시 동남구 통정3로,59,,4.41311E+24,,충청남도 천안시 동남구 통정3로 59,330940,31204,,,,127.1309707,36.77618532
MA0101202410A0247657,154화원,,G2,소매,G219,식물 소매,G21901,꽃집,G47851,화초 및 식물 소매업,44,충청남도,44270,당진시,44270380,신평면,4427038028,신평면,4.42704E+18,1,대지,187,4,충청남도 당진시 신평면 운정리 187-4,4.42705E+11,충청남도 당진시 신평면 삽교천3길,93,,4.42704E+24,,충청남도 당진시 신평면 삽교천3길 93,343816,31744,,,,126.8255114,36.88936251
MA0101202410A0273770,삼꽃인삼사,,G2,소매,G219,식물 소매,G21901,꽃집,G47851,화초 및 식물 소매업,44,충청남도,44710,금산군,44710250,금산읍,4471025022,금산읍,4.47103E+18,1,대지,444,4,충청남도 금산군 금산읍 중도리 444-4,4.47105E+11,충청남도 금산군 금산읍 건삼전1길,22,,4.47103E+24,,충청남도 금산군 금산읍 건삼전1길 22,312806,32740,,,,127.4919983,36.10084963
MA0101202409A0165448,천안시꽃밭,,G2,소매,G219,식물 소매,G21901,꽃집,G47851,화초 및 식물 소매업,44,충청남도,44133,천안시 서북구,44133520,성정2동,4413310200,성정동,4.41331E+18,1,대지,24,6,충청남도 천안시 서북구 성정동 24-6,4.41333E+11,충청남도 천안시 서북구 축구센터로,204,,4.41331E+24,,충청남도 천안시 서북구 축구센터로 204,331935,31104,,,,127.1485963,36.82535631
MA0101202409A0187877,화목하다,,G2,소매,G219,식물 소매,G21901,꽃집,G47851,화초 및 식물 소매업,44,충청남도,44210,서산시,44210310,인지면,4421031029,인지면,4.42103E+18,1,대지,605,,충청남도 서산시 인지면 성리 605,4.42105E+11,충청남도 서산시 인지면 서각산길,192,,4.42103E+24,,충청남도 서산시 인지면 서각산길 192,356883,32012,,,,126.4052484,36.79339649
MA0101202410A0704253,동행정품화원,,G2,소매,G219,식물 소매,G21901,꽃집,G47851,화초 및 식물 소매업,44,충청남도,44133,천안시 서북구,44133510,성정1동,4413310200,성정동,4.41331E+18,1,대지,731,14,충청남도 천안시 서북구 성정동 731-14,4.41333E+11,충청남도 천안시 서북구 성정로,97,8,4.41331E+24,상가,충청남도 천안시 서북구 성정로 97-8,331969,31141,,1,,127.141167,36.8143448
MA0101202410A0687462,홍산꽃화원,,G2,소매,G219,식물 소매,G21901,꽃집,G47851,화초 및 식물 소매업,44,충청남도,44760,부여군,44760360,홍산면,4476036024,홍산면,4.47604E+18,1,대지,165,7,충청남도 부여군 홍산면 남촌리 165-7,4.47603E+11,충청남도 부여군 홍산면 홍산로,66,,4.47604E+24,,충청남도 부여군 홍산면 홍산로 66,323842,33199,,,,126.7601486,36.21518082
MA0101202410A0702334,야호플라워,,G2,소매,G219,식물 소매,G21901,꽃집,G47851,화초 및 식물 소매업,44,충청남도,44230,논산시,44230520,부창동,4423010400,부창동,4.42301E+18,1,대지,100,8,충청남도 논산시 부창동 100-8,4.42305E+11,충청남도 논산시 계백로886번길,21,,4.42301E+24,,충청남도 논산시 계백로886번길 21,320080,32956,,,,127.0813992,36.19650429
MA0101202410A0697760,함북상회,,G2,소매,G219,식물 소매,G21901,꽃집,G47851,화초 및 식물 소매업,44,충청남도,44230,논산시,44230510,취암동,4423010100,화지동,4.42301E+18,1,대지,41,253,충청남도 논산시 화지동 41-253,4.42305E+11,충청남도 논산시 중앙로497번길,1,,4.42301E+24,,충청남도 논산시 중앙로497번길 1,320802,32950,,,,127.0826777,36.20701144
MA0101202410A0710274,라디플라워,,G2,소매,G219,식물 소매,G21901,꽃집,G47851,화초 및 식물 소매업,44,충청남도,44131,천안시 동남구,44131520,문성동,4413110200,성황동,4.41311E+18,1,대지,45,17,충청남도 천안시 동남구 성황동 45-17,4.41313E+11,충청남도 천안시 동남구 대흥로,292,,4.41311E+24,민스타운,충청남도 천안시 동남구 대흥로 292,330130,31122,,,,127.1497958,36.81393775
MA0101202410A0679109,피움천안,신불당점,G2,소매,G219,식물 소매,G21901,꽃집,G47851,화초 및 식물 소매업,44,충청남도,44133,천안시 서북구,44133567,불당2동,4413310800,불당동,4.41331E+18,1,대지,1759,,충청남도 천안시 서북구 불당동 1759,4.41335E+11,충청남도 천안시 서북구 불당30길,48,,4.41331E+24,,충청남도 천안시 서북구 불당30길 48,331230,31156,,,,127.1034498,36.81083321
MA0101202410A0705721,두리다육,,G2,소매,G219,식물 소매,G21901,꽃집,G47851,화초 및 식물 소매업,44,충청남도,44710,금산군,44710350,남일면,4471035022,남일면,4.47104E+18,1,대지,749,6,충청남도 금산군 남일면 마장리 749-6,4.47103E+11,충청남도 금산군 남일면 무금로,2114,,4.47104E+24,,충청남도 금산군 남일면 무금로 2114,312852,32753,,,,127.5090568,36.08210532
MA0101202410A0724433,시엔플레르,,G2,소매,G219,식물 소매,G21901,꽃집,G47851,화초 및 식물 소매업,44,충청남도,44133,천안시 서북구,44133580,부성1동,4413310400,두정동,4.41331E+18,1,대지,77,3,충청남도 천안시 서북구 두정동 77-3,4.41335E+11,충청남도 천안시 서북구 두정역서3길,29,,4.41331E+24,,충청남도 천안시 서북구 두정역서3길 29,331957,31103,,1,,127.1484441,36.83358361
MA0101202410A0685354,현대화원,,G2,소매,G219,식물 소매,G21901,꽃집,G47851,화초 및 식물 소매업,44,충청남도,44810,예산군,44810380,고덕면,4481038024,고덕면,4.48104E+18,1,대지,38,,충청남도 예산군 고덕면 호음리 38,4.48103E+11,충청남도 예산군 고덕면 예덕로,1097,,4.48104E+24,,충청남도 예산군 고덕면 예덕로 1097,340934,32401,,,,126.7319847,36.78344376
MA0101202410A0695652,풀가,,G2,소매,G219,식물 소매,G21901,꽃집,G47851,화초 및 식물 소매업,44,충청남도,44250,계룡시,44250310,두마면,4425031024,두마면,4.42503E+18,1,대지,973,,충청남도 계룡시 두마면 농소리 973,4.42503E+11,충청남도 계룡시 두마면 농소로,63,,4.42503E+24,계룡푸르지오더퍼스트,충청남도 계룡시 두마면 농소로 63,321912,32844,,1,,127.2588978,36.26113813
MA0101202410A0711720,청담플라워,,G2,소매,G219,식물 소매,G21901,꽃집,G47851,화초 및 식물 소매업,44,충청남도,44131,천안시 동남구,44131580,청룡동,4413111100,청당동,4.41311E+18,1,대지,369,2,충청남도 천안시 동남구 청당동 369-2,4.41313E+11,충청남도 천안시 동남구 광풍로,1775,,4.41311E+24,천안축산농협하나로마트,충청남도 천안시 동남구 광풍로 1775,330270,31211,,1,,127.1430035,36.77734292
MA0101202410A0722062,정한화원,,G2,소매,G219,식물 소매,G21901,꽃집,G47851,화초 및 식물 소매업,44,충청남도,44230,논산시,44230510,취암동,4423010500,취암동,4.42301E+18,1,대지,579,1,충청남도 논산시 취암동 579-1,4.42303E+11,충청남도 논산시 시민로,415,3,4.42301E+24,,충청남도 논산시 시민로 415-3,320803,32954,,,,127.0862076,36.20126829
MA0101202410A0734384,혜윰,,G2,소매,G219,식물 소매,G21901,꽃집,G47851,화초 및 식물 소매업,44,충청남도,44800,홍성군,44800250,홍성읍,4480025024,홍성읍,4.48003E+18,1,대지,460,,충청남도 홍성군 홍성읍 월산리 460,4.48003E+11,충청남도 홍성군 홍성읍 백월로,81,,4.48003E+24,,충청남도 홍성군 홍성읍 백월로 81,350809,32250,,,,126.6393607,36.59649506
MA0101202410A0690073,에덴플라워,,G2,소매,G219,식물 소매,G21901,꽃집,G47851,화초 및 식물 소매업,44,충청남도,44133,천안시 서북구,44133580,부성1동,4413310400,두정동,4.41331E+18,1,대지,1264,,충청남도 천안시 서북구 두정동 1264,4.41333E+11,충청남도 천안시 서북구 두정로,199,,4.41331E+24,,충청남도 천안시 서북구 두정로 199,331961,31101,,,,127.1391066,36.83384721
MA0101202410A0709453,에이프릴플라워,,G2,소매,G219,식물 소매,G21901,꽃집,G47851,화초 및 식물 소매업,44,충청남도,44133,천안시 서북구,44133567,불당2동,4413310800,불당동,4.41331E+18,1,대지,1813,,충청남도 천안시 서북구 불당동 1813,4.41335E+11,충청남도 천안시 서북구 불당34길,25,6,4.41331E+24,JP센트럴타워,충청남도 천안시 서북구 불당34길 25-6,331230,31156,,1,,127.1056194,36.80759632
MA0101202410A0674133,플라워릴,,G2,소매,G219,식물 소매,G21901,꽃집,G47851,화초 및 식물 소매업,44,충청남도,44810,예산군,44810250,예산읍,4481025021,예산읍,4.48103E+18,1,대지,676,16,충청남도 예산군 예산읍 예산리 676-16,4.48103E+11,충청남도 예산군 예산읍 예산로,145,1,4.48103E+24,,충청남도 예산군 예산읍 예산로 145-1,340804,32435,,1,,126.8412821,36.67855994
MA0101202410A0696918,근형이네다육농원,,G2,소매,G219,식물 소매,G21901,꽃집,G47851,화초 및 식물 소매업,44,충청남도,44133,천안시 서북구,44133253,성거읍,4413325331,성거읍,4.41333E+18,1,대지,145,8,충청남도 천안시 서북구 성거읍 요방리 145-8,4.41335E+11,충청남도 천안시 서북구 성거읍 무너미길,27,9,4.41333E+24,,충청남도 천안시 서북구 성거읍 무너미길 27-9,331834,31053,,,,127.1871155,36.85058696
MA0101202410A0717052,시장종묘사,,G2,소매,G219,식물 소매,G21901,꽃집,G47851,화초 및 식물 소매업,44,충청남도,44800,홍성군,44800250,홍성읍,4480025022,홍성읍,4.48003E+18,1,대지,95,8,충청남도 홍성군 홍성읍 대교리 95-8,4.48003E+11,충청남도 홍성군 홍성읍 의사로,43,,4.48003E+24,,충청남도 홍성군 홍성읍 의사로 43,350805,32221,,1,,126.6709216,36.60155166
MA0101202410A0673049,꽃천지,,G2,소매,G219,식물 소매,G21901,꽃집,G47851,화초 및 식물 소매업,44,충청남도,44800,홍성군,44800250,홍성읍,4480025026,홍성읍,4.48003E+18,1,대지,481,,충청남도 홍성군 홍성읍 남장리 481,4.48005E+11,충청남도 홍성군 홍성읍 충서로1159번길,40,,4.48003E+24,,충청남도 홍성군 홍성읍 충서로1159번길 40,350803,32244,,,,126.652466,36.58235906
MA0101202410A0700683,온유플라워,,G2,소매,G219,식물 소매,G21901,꽃집,G47851,화초 및 식물 소매업,44,충청남도,44230,논산시,44230510,취암동,4423010500,취암동,4.42301E+18,1,대지,139,89,충청남도 논산시 취암동 139-89,4.42305E+11,충청남도 논산시 시민로294번길,34,,4.42301E+24,,충청남도 논산시 시민로294번길 34,320802,32980,,1,,127.0957274,36.19349268
MA0101202410A0718511,커피크닉,,G2,소매,G219,식물 소매,G21901,꽃집,G47851,화초 및 식물 소매업,44,충청남도,44133,천안시 서북구,44133566,불당1동,4413310800,불당동,4.41331E+18,1,대지,885,,충청남도 천안시 서북구 불당동 885,4.41335E+11,충청남도 천안시 서북구 불당12길,26,8,4.41331E+24,,충청남도 천안시 서북구 불당12길 26-8,331984,31164,,,,127.1073772,36.80645033
MA0101202410A0731970,헤이로즈,,G2,소매,G219,식물 소매,G21901,꽃집,G47851,화초 및 식물 소매업,44,충청남도,44270,당진시,44270253,송악읍,4427025321,송악읍,4.42703E+18,1,대지,153,30,충청남도 당진시 송악읍 기지시리 153-30,4.42703E+11,충청남도 당진시 송악읍 반촌로,98,1,4.48303E+24,,충청남도 당진시 송악읍 반촌로 98-1,343825,31733,,1,,126.6946145,36.90412847
MA0101202410A0728189,해뜰꽃집,,G2,소매,G219,식물 소매,G21901,꽃집,G47851,화초 및 식물 소매업,44,충청남도,44760,부여군,44760360,홍산면,4476036024,홍산면,4.47604E+18,1,대지,96,10,충청남도 부여군 홍산면 남촌리 96-10,4.47603E+11,충청남도 부여군 홍산면 홍산로,38,,4.47604E+24,,충청남도 부여군 홍산면 홍산로 38,323842,33199,,,,126.7599666,36.21287338
MA0101202410A0733395,아온플라워,,G2,소매,G219,식물 소매,G21901,꽃집,G47851,화초 및 식물 소매업,44,충청남도,44150,공주시,44150510,중학동,4415010300,중학동,4.41501E+18,1,대지,143,10,충청남도 공주시 중학동 143-10,4.41503E+11,충청남도 공주시 웅진로,96,,4.41501E+24,,충청남도 공주시 웅진로 96,314070,32563,,,,127.1236809,36.44883577
MA0101202410A0728288,르봄플라워,,G2,소매,G219,식물 소매,G21901,꽃집,G47851,화초 및 식물 소매업,44,충청남도,44180,보령시,44180535,대천3동,4418010400,동대동,4.41801E+18,1,대지,1748,,충청남도 보령시 동대동 1748,4.41803E+11,충청남도 보령시 한내로,10,,4.41801E+24,,충청남도 보령시 한내로 10,355938,33469,,,,126.6049744,36.34779311
MA0101202410A0705284,뜨라레플라워,,G2,소매,G219,식물 소매,G21901,꽃집,G47851,화초 및 식물 소매업,44,충청남도,44131,천안시 동남구,44131530,원성1동,4413110700,원성동,4.41311E+18,1,대지,462,1,충청남도 천안시 동남구 원성동 462-1,4.41313E+11,충청남도 천안시 동남구 성황로,86,,4.41311E+24,,충청남도 천안시 동남구 성황로 86,330952,31126,,,,127.1585675,36.81221427
MA0101202410A0728945,대건꽃가게,,G2,소매,G219,식물 소매,G21901,꽃집,G47851,화초 및 식물 소매업,44,충청남도,44710,금산군,44710360,남이면,4471036027,남이면,4.47104E+18,1,대지,626,,충청남도 금산군 남이면 구석리 626,4.47105E+11,충청남도 금산군 남이면 거북바위길,10,51,4.47104E+24,,충청남도 금산군 남이면 거북바위길 10-51,312892,32759,,,,127.4638797,36.01560764
MA0101202410A0677628,현이네꽃집,,G2,소매,G219,식물 소매,G21901,꽃집,G47851,화초 및 식물 소매업,44,충청남도,44131,천안시 동남구,44131520,문성동,4413110200,성황동,4.41311E+18,1,대지,111,17,충청남도 천안시 동남구 성황동 111-17,4.41313E+11,충청남도 천안시 동남구 성황로,3,2,4.41311E+24,,충청남도 천안시 동남구 성황로 3-2,330130,31122,,,,127.1497269,36.81306376
MA0101202410A0730720,사랑화원,,G2,소매,G219,식물 소매,G21901,꽃집,G47851,화초 및 식물 소매업,44,충청남도,44131,천안시 동남구,44131580,청룡동,4413111000,삼룡동,4.41311E+18,1,대지,201,5,충청남도 천안시 동남구 삼룡동 201-5,4.41315E+11,충청남도 천안시 동남구 삼룡1길,50,,4.41311E+24,,충청남도 천안시 동남구 삼룡1길 50,330150,31070,,,,127.1712739,36.78601935
MA0101202410A0698776,정안햇살다육,,G2,소매,G219,식물 소매,G21901,꽃집,G47851,화초 및 식물 소매업,44,충청남도,44150,공주시,44150570,신관동,4415012200,쌍신동,4.41501E+18,1,대지,131,11,충청남도 공주시 쌍신동 131-11,4.41505E+11,충청남도 공주시 쌍신길,164,36,4.41501E+24,,충청남도 공주시 쌍신길 164-36,314802,32529,,,,127.1268473,36.48213041
MA0101202410A0464308,대구농원,,G2,소매,G219,식물 소매,G21901,꽃집,G47851,화초 및 식물 소매업,44,충청남도,44810,예산군,44810400,오가면,4481040031,오가면,4.48104E+18,1,대지,611,6,충청남도 예산군 오가면 신원리 611-6,4.48105E+11,충청남도 예산군 오가면 신원길,216,9,4.48104E+24,,충청남도 예산군 오가면 신원길 216-9,340914,32424,,,,126.8189895,36.70061479
MA0101202410A0469510,내사랑플라워,,G2,소매,G219,식물 소매,G21901,꽃집,G47851,화초 및 식물 소매업,44,충청남도,44131,천안시 동남구,44131550,봉명동,4413111300,봉명동,4.41311E+18,1,대지,18,12,충청남도 천안시 동남구 봉명동 18-12,4.41313E+11,충청남도 천안시 동남구 차돌로,107,,4.41311E+24,,충청남도 천안시 동남구 차돌로 107,330930,31153,,1,,127.1419079,36.80282772
MA0101202410A0469962,꽃싸부,,G2,소매,G219,식물 소매,G21901,꽃집,G47851,화초 및 식물 소매업,44,충청남도,44131,천안시 동남구,44131530,원성1동,4413110700,원성동,4.41311E+18,1,대지,461,2,충청남도 천안시 동남구 원성동 461-2,4.41313E+11,충청남도 천안시 동남구 성황로,90,1,4.41311E+24,,충청남도 천안시 동남구 성황로 90-1,330952,31126,,1,,127.1591163,36.8120243
MA0101202410A0470393,준플라워,,G2,소매,G219,식물 소매,G21901,꽃집,G47851,화초 및 식물 소매업,44,충청남도,44131,천안시 동남구,44131580,청룡동,4413111100,청당동,4.41311E+18,1,대지,488,,충청남도 천안시 동남구 청당동 488,4.41313E+11,충청남도 천안시 동남구 청수14로,60,,4.41311E+24,서미법조타워,충청남도 천안시 동남구 청수14로 60,330270,31198,,1,,127.1529866,36.78409787
MA0101202410A0470409,미스터플라워,,G2,소매,G219,식물 소매,G21901,꽃집,G47851,화초 및 식물 소매업,44,충청남도,44133,천안시 서북구,44133590,부성2동,4413310400,두정동,4.41331E+18,1,대지,802,,충청남도 천안시 서북구 두정동 802,4.41333E+11,충청남도 천안시 서북구 오성로,52,,4.41331E+24,,충청남도 천안시 서북구 오성로 52,331958,31099,,,,127.1330356,36.83020467
MA0101202410A0475440,국화사랑,,G2,소매,G219,식물 소매,G21901,꽃집,G47851,화초 및 식물 소매업,44,충청남도,44180,보령시,44180390,미산면,4418039022,미산면,4.41804E+18,1,대지,50,2,충청남도 보령시 미산면 도화담리 50-2,4.41803E+11,충청남도 보령시 미산면 만수로,1145,,4.41804E+24,,충청남도 보령시 미산면 만수로 1145,355872,33512,,,,126.6782227,36.2929326
MA0101202410A0475453,영플라워,,G2,소매,G219,식물 소매,G21901,꽃집,G47851,화초 및 식물 소매업,44,충청남도,44770,서천군,44770253,서천읍,4477025321,서천읍,4.47703E+18,1,대지,567,12,충청남도 서천군 서천읍 군사리 567-12,4.47703E+11,충청남도 서천군 서천읍 서천로,43,,4.47703E+24,,충청남도 서천군 서천읍 서천로 43,325802,33646,,,,126.6946406,36.07579497
